numero_dpe,date_etablissement_dpe,id_rnb,identifiant_ban,adresse_ban,code_postal_ban,nom_commune_ban,code_departement_ban,type_batiment,periode_construction,annee_construction,surface_habitable_logement,etiquette_dpe,etiquette_ges,conso_5_usages_par_m2_ep,rnb_status,rnb_lon,rnb_lat,rnb_insee_code,rnb_n_addresses,rnb_match,bdnb_batiment_groupe_id,bdnb_hauteur,bdnb_s_geom_cstr,bdnb_altitude_sol,bdnb_annee_construction,bdnb_mat_mur,bdnb_mat_toit,bdnb_nb_niveau,bdnb_nb_log,bdnb_usage,bdnb_alea_argiles,alea_argiles_final,alea_argiles_source
2675E1528826C,2026-06-08,MJ8ZTZ38EJSZ,75115_0012_00029,29 Rue de l'Abbé Groult 75015 Paris,75015,Paris,75,appartement,1975-1977,1975,22.5,E,E,250.6,constructed,2.294887846675796,48.841793498210876,75115,2,id_rnb,bdnb-bg-6Z79-ATZ4-T5M6,21.4,430,32.2,1900,INDETERMINE,INDETERMINE,8,74,Résidentiel collectif,,Non exposé,Géorisques
2675E1529128S,2026-06-08,FCWS1X7GYXCH,75112_5866_00025,25 Rue de Lyon 75012 Paris,75012,Paris,75,appartement,avant 1948,,33.4,E,C,335,constructed,2.371309653934481,48.8475455129431,75112,2,id_rnb,bdnb-bg-KV79-FMY1-9M9D,19.4,170,34.1,1860,BRIQUES - MEULIERE,ZINC ALUMINIUM,6,15,Résidentiel collectif,,Non exposé,Géorisques
2675E1527724S,2026-06-08,8Y781ZV9D6RN,75115_3177_00027,27 Rue de l'Eglise 75015 Paris,75015,Paris,75,appartement,avant 1948,,24.4,G,C,577,constructed,2.286541352435898,48.84485761024335,75115,1,id_rnb,bdnb-bg-E7LM-SGEA-4WSJ,8.2,75,31.1,1880,AUTRES,TUILES - ZINC ALUMINIUM,5,19,Résidentiel collectif,,Non exposé,Géorisques
2675E1535407F,2026-06-08,F2TCW6JB14BQ,75115_7845_00007,7 Rue de la Procession 75015 Paris,75015,Paris,75,appartement,1978-1982,,49.7,D,B,190,constructed,2.305598403957124,48.840235926781794,75115,1,id_rnb,bdnb-bg-W6HL-UW56-3E6R,18.2,211,46.0,1982,BETON,BETON,7,24,Résidentiel collectif,,Non exposé,Géorisques
2675E1536930U,2026-06-08,9D38PY5XBBKY,75111_7457_00013,13 Rue de la Pierre Levée 75011 Paris,75011,Paris,75,appartement,avant 1948,1875,21.1,G,D,490,constructed,2.370206077878504,48.867460614773,75111,1,id_rnb,bdnb-bg-CHC9-D2X8-Y658,16.8,266,38.5,1875,BETON - BOIS,ZINC ALUMINIUM,7,38,Résidentiel collectif,,Non exposé,Géorisques
2675E1534192M,2026-06-08,ZAFF52YFD26R,75118_6036_00038,38 Rue Marc Séguin 75018 Paris,75018,Paris,75,appartement,avant 1948,1900,28.2,D,B,271.8,constructed,2.360539582649754,48.89216007453177,75118,1,id_rnb,bdnb-bg-TBZH-M6UD-SU7B,21.9,77,52.0,1880,BRIQUES - MEULIERE,ZINC ALUMINIUM,6,11,Résidentiel collectif,,Non exposé,Géorisques
2675E1535452Y,2026-06-08,HYP2J1BHYBK5,75117_4927_00006,6 Rue Jean Moréas 75017 Paris,75017,Paris,75,appartement,avant 1948,1930,70.8,E,E,280.1,constructed,2.292499493911449,48.88694532253719,75117,1,id_rnb,bdnb-bg-PQYN-16LV-F5VF,26.1,239,35.1,1900,BETON - PIERRE,ARDOISES,8,22,Résidentiel collectif,,Non exposé,Géorisques
2675E1528724E,2026-06-08,1FPZE3HA9GWJ,75110_2799_00012,12 Rue Dieu 75010 Paris,75010,Paris,75,appartement,avant 1948,,22.2,C,B,204,constructed,2.36497537133985,48.87039103967368,75110,1,id_rnb,bdnb-bg-1N56-J896-HASF,15.8,212,36.0,2002,BETON - BRIQUES,BETON - TUILES,5,22,Résidentiel collectif,,Non exposé,Géorisques
2675E1536668S,2026-06-08,H49NQZCZK364,75105_8421_00009,9 Rue Royer-Collard 75005 Paris,75005,Paris,75,appartement,avant 1948,1900,54.7,G,C,570.1,constructed,2.341870060871694,48.84565352254319,75105,1,id_rnb,bdnb-bg-TQT9-3U6N-RLE1,21.1,192,56.8,1780,AGGLOMERE - PIERRE,ZINC ALUMINIUM,6,10,Résidentiel collectif,,Non exposé,Géorisques
2675E1529373D,2026-06-08,E58HP8EG4HJF,75119_3308_00020,20 Rue de l'Equerre 75019 Paris,75019,Paris,75,appartement,avant 1948,1900,32.3,F,F,335.2,constructed,2.382467834668464,48.87437336546633,75119,1,id_rnb,bdnb-bg-XGAF-B6W7-V7WA,19.2,229,77.3,1910,BRIQUES - PIERRE,ZINC ALUMINIUM,5,25,Résidentiel collectif,,Non exposé,Géorisques
2675E1532976S,2026-06-08,JA1PE67H4299,75112_4552_00001,1 Rue Henri Desgrange 75012 Paris,75012,Paris,75,appartement,1989-2000,,125.5,C,C,99,constructed,2.380758262010176,48.83924875204807,75112,1,id_rnb,bdnb-bg-GX8B-X3W1-JNJR,26.3,142,32.6,,,,,,,,Non exposé,Géorisques
2675E1528840Q,2026-06-08,R4MRBZCC64MC,75104_9191_00014,14 Rue du Temple 75004 Paris,75004,Paris,75,appartement,avant 1948,1850,92.1,B,A,98,constructed,2.353865542177969,48.85808597809047,75104,2,id_rnb,bdnb-bg-XQ3K-4PP6-WNF3,19.4,1503,36.0,1850,BOIS - PIERRE,ZINC ALUMINIUM,7,23,Tertiaire & Autres,,Non exposé,Géorisques
2675E1534112K,2026-06-08,P178R2SAE5ZV,75109_8289_00037,37 Rue Marguerite de Rochechouart 75009 Paris,75009,Paris,75,appartement,avant 1948,1880,21.8,D,D,202,constructed,2.344875935018778,48.8785633768023,75109,3,id_rnb,bdnb-bg-F9U5-1BFR-T1JF,19.2,1010,47.2,,,,,,,,Non exposé,Géorisques
2675E1526078K,2026-06-08,7D6N693W1WT8,75114_7510_00024,24 Rue de Plaisance 75014 Paris,75014,Paris,75,appartement,avant 1948,,17.7,C,B,240,constructed,2.31934627168094,48.832870647609184,75114,1,id_rnb,bdnb-bg-DP41-44VX-L5KZ,18.5,57,62.2,1870,PIERRE,ZINC ALUMINIUM,5,10,Résidentiel collectif,,Non exposé,Géorisques
2675E1535466M,2026-06-08,S6FPGM6KKPCH,75111_0783_00028,28 Boulevard Beaumarchais 75011 Paris,75011,Paris,75,appartement,avant 1948,,41.9,E,B,270,constructed,2.368824840654262,48.85599715822318,75111,2,id_rnb,bdnb-bg-AN9N-DADE-EAZF,20.0,206,35.2,1810,BRIQUES - AUTRES,ARDOISES - ZINC ALUMINIUM,7,15,Résidentiel collectif,,Non exposé,Géorisques
2675E1537899B,2026-06-08,V7D3NM9MQDM3,75108_7231_00005,5 Rue Pelouze 75008 Paris,75008,Paris,75,appartement,avant 1948,,255.1,B,A,75,constructed,2.318480006088278,48.88097114886658,75108,1,id_rnb,bdnb-bg-3QJ8-9MPJ-RT26,19.0,232,52.0,1920,MEULIERE - PIERRE,ZINC ALUMINIUM,7,5,Résidentiel collectif,,Non exposé,Géorisques
2675E1526326Y,2026-06-08,6NJAMMJRJFFS,75116_4116_00028,28 Rue George Sand 75016 Paris,75016,Paris,75,appartement,avant 1948,1925,31.7,F,E,355.3,constructed,2.267974899977413,48.85033778166125,75116,1,id_rnb,bdnb-bg-ZQCC-ABRT-PLF7,25.9,267,35.1,1925,BETON - PIERRE,BETON - ZINC ALUMINIUM,9,51,Résidentiel collectif,,Non exposé,Géorisques
2675E1534679F,2026-06-08,HJ9MHXDG2YYM,75115_2713_00012_b,12b Rue Desaix 75015 Paris,75015,Paris,75,appartement,avant 1948,1913,73.6,C,C,169,constructed,2.293976733883596,48.85400407861856,75115,2,id_rnb,bdnb-bg-DAN1-AES7-AZ7Q,20.8,277,33.8,1913,BETON - BRIQUES,ARDOISES - ZINC ALUMINIUM,7,10,Résidentiel collectif,,Non exposé,Géorisques
2675E1527579D,2026-06-08,P1D8WKJQ3J6Y,75111_3508_00084,84 Rue du Faubourg du Temple 75011 Paris,75011,Paris,75,immeuble,avant 1948,,,E,D,311,constructed,2.373695069422254,48.87049539076253,75111,1,id_rnb,bdnb-bg-K281-5YTT-QAAR,20.3,937,48.3,1911,BRIQUES - PIERRE,ZINC ALUMINIUM,7,61,Résidentiel collectif,,Non exposé,Géorisques
2675E1529356M,2026-06-08,1N21JQ81XAKA,75115_7267_00036,36 Rue Pérignon 75015 Paris,75015,Paris,75,appartement,avant 1948,,94.4,D,C,180,constructed,2.306186824754997,48.84692128951251,75115,2,id_rnb,bdnb-bg-11TZ-FCWB-ACAR,15.0,469,38.0,1950,BETON,INDETERMINE,5,10,Résidentiel collectif,,Non exposé,Géorisques
2675E1533941V,2026-06-08,JMW7VDHSEFTP,75111_9477_00025,25 Rue Trousseau 75011 Paris,75011,Paris,75,appartement,avant 1948,,43.7,F,F,355,constructed,2.378980128424067,48.85263899910045,75111,1,id_rnb,bdnb-bg-CSBK-T2CS-Q8Y8,13.6,181,35.1,1900,PIERRE,ARDOISES - TUILES,7,19,Résidentiel collectif,,Non exposé,Géorisques
2675E1531559F,2026-06-08,Z43B5ECXAZGK,75117_5538_00010,10 Rue Léon Cogniet 75017 Paris,75017,Paris,75,appartement,avant 1948,,95.4,E,E,284,constructed,2.302846083884037,48.881364390423286,75117,1,id_rnb,bdnb-bg-Q929-D2DJ-JSB6,19.6,258,40.9,1881,PIERRE,ZINC ALUMINIUM,7,18,Résidentiel collectif,,Non exposé,Géorisques
2675E1537085T,2026-06-08,CMDQXQJJ1NB9,75110_5907_00114,114 Boulevard de Magenta 75010 Paris,75010,Paris,75,appartement,avant 1948,1870,17,D,B,264.4,constructed,2.35394276060401,48.87902640724926,75110,4,id_rnb,bdnb-bg-EJYK-841L-53XN,21.2,568,50.2,1880,MEULIERE,ZINC ALUMINIUM,7,13,Tertiaire & Autres,,Non exposé,Géorisques
2675E1530721Z,2026-06-08,PCQK57QBJ9RZ,75115_0059_00007,7 Place Adolphe Chérioux 75015 Paris,75015,Paris,75,appartement,avant 1948,,60,D,D,142,constructed,2.30102320768139,48.8402672548615,75115,1,id_rnb,bdnb-bg-Q74R-4WS1-1RXA,23.8,278,41.5,1955,BETON - BRIQUES,ZINC ALUMINIUM,9,17,Résidentiel collectif,,Non exposé,Géorisques
2675E1534887F,2026-06-08,HTV9N3C1S47R,75118_6918_00088,88 Rue Ordener 75018 Paris,75018,Paris,75,appartement,avant 1948,,30.4,F,C,422,constructed,2.343022348874865,48.89284865239371,75118,1,id_rnb,bdnb-bg-L9MQ-JXZQ-RQZJ,19.2,155,58.5,1890,PIERRE,TUILES,7,11,Résidentiel collectif,,Non exposé,Géorisques
2675E1538350K,2026-06-08,VEQGW5PTVW93,75116_1143_00003,3 Avenue Boudon 75016 Paris,75016,Paris,75,appartement,1975-1977,,100.3,F,C,409,constructed,2.270074631486235,48.84959687691021,75116,1,id_rnb,bdnb-bg-AXC2-GRT7-1M6Y,17.8,643,30.7,1979,BETON - BRIQUES,BETON,7,51,Résidentiel collectif,,Non exposé,Géorisques
2675E1528094Y,2026-06-08,P1D8WKJQ3J6Y,75111_3508_00084,84 Rue du Faubourg du Temple 75011 Paris,75011,Paris,75,immeuble,avant 1948,,,F,D,375,constructed,2.373695069422254,48.87049539076253,75111,1,id_rnb,bdnb-bg-K281-5YTT-QAAR,20.3,937,48.3,1911,BRIQUES - PIERRE,ZINC ALUMINIUM,7,61,Résidentiel collectif,,Non exposé,Géorisques
2675E1532752C,2026-06-08,Q4DBYPZ6QVCK,75119_6671_00037,37 Rue de Nantes 75019 Paris,75019,Paris,75,appartement,avant 1948,,38.4,F,F,388,constructed,2.380945470088205,48.892373346151075,75119,1,id_rnb,bdnb-bg-HTFK-SVTQ-1RD8,17.8,160,51.0,1900,BRIQUES - MEULIERE,ZINC ALUMINIUM,7,48,Résidentiel collectif,,Non exposé,Géorisques
2675E1528721B,2026-06-08,1FPZE3HA9GWJ,75110_2799_00012,12 Rue Dieu 75010 Paris,75010,Paris,75,appartement,avant 1948,,22.2,C,B,204,constructed,2.36497537133985,48.87039103967368,75110,1,id_rnb,bdnb-bg-1N56-J896-HASF,15.8,212,36.0,2002,BETON - BRIQUES,BETON - TUILES,5,22,Résidentiel collectif,,Non exposé,Géorisques
2675E1536673X,2026-06-08,PQ5DRHDAKRBW,75101_5825_00009,9 Rue du Louvre 75001 Paris,75001,Paris,75,appartement,avant 1948,,49.7,C,A,148,constructed,2.341292018285354,48.86240046500224,75101,1,id_rnb,bdnb-bg-WCUV-987J-7QUZ,24.3,273,35.9,1880,PIERRE,ARDOISES - ZINC ALUMINIUM,8,13,Résidentiel collectif,,Non exposé,Géorisques
2675E1537140W,2026-06-08,R8Z39HER794M,75101_8855_00003,3 Rue Sauval 75001 Paris,75001,Paris,75,appartement,avant 1948,,19.9,C,A,197,constructed,2.342331470918364,48.861781994826856,75101,1,id_rnb,bdnb-bg-VQP9-6ZPL-WBY4,19.3,151,35.0,1750,MEULIERE,TUILES - ZINC ALUMINIUM,6,13,Résidentiel collectif,,Non exposé,Géorisques
2675E1538460Q,2026-06-08,JTDEHM4TZWX2,75117_2980_00004,4 Rue Dulong 75017 Paris,75017,Paris,75,appartement,avant 1948,,23.5,G,G,422,constructed,2.318274599994883,48.88348390029657,75117,1,id_rnb,bdnb-bg-7JDR-Z7ZF-DS33,17.6,225,50.5,1933,BRIQUES - PIERRE,ARDOISES - ZINC ALUMINIUM,8,60,Résidentiel collectif,,Non exposé,Géorisques
2675E1536005F,2026-06-08,3AREYKD5174Y,75112_2367_00018,18 Rue de Cotte 75012 Paris,75012,Paris,75,appartement,avant 1948,1900,49.5,E,B,262.9,constructed,2.378145726197763,48.849902314988654,75112,1,id_rnb,bdnb-bg-WVX9-KGD4-1MJD,17.5,266,35.0,1840,MEULIERE,ZINC ALUMINIUM,6,23,Résidentiel collectif,,Non exposé,Géorisques
2675E1531191B,2026-06-08,GM5RNQQN1JRP,75111_4939_00029,29 Rue Jean-Pierre Timbaud 75011 Paris,75011,Paris,75,immeuble,avant 1948,,,E,C,254,constructed,2.36909494951704,48.865665219132026,75111,2,id_rnb,bdnb-bg-74T8-95WM-78JQ,19.5,368,36.5,1740,AGGLOMERE - AUTRES,ZINC ALUMINIUM,8,27,Résidentiel collectif,,Non exposé,Géorisques
2675E1528533V,2026-06-08,EYAZ4A66FTA4,75109_1017_00016,16 Rue Bleue 75009 Paris,75009,Paris,75,appartement,avant 1948,,37,D,B,195,constructed,2.346089066545876,48.87609532199298,75109,1,id_rnb,bdnb-bg-J6H5-RH86-ALC6,19.0,393,36.0,1870,BRIQUES,ARDOISES - ZINC ALUMINIUM,7,12,Tertiaire & Autres,,Non exposé,Géorisques
2675E1531316W,2026-06-08,N747553RBXG2,75114_6522_00152,152 Boulevard du Montparnasse 75014 Paris,75014,Paris,75,appartement,avant 1948,,26.9,F,C,402,constructed,2.334207395493126,48.84023219072859,75114,1,id_rnb,bdnb-bg-9SWA-YLYL-33D8,14.9,161,56.0,1877,INDETERMINE,INDETERMINE,8,57,Résidentiel collectif,,Non exposé,Géorisques
2675E1526758O,2026-06-08,P6SDRQATCWH3,75105_4877_00023,23 Rue Jean de Beauvais 75005 Paris,75005,Paris,75,appartement,avant 1948,,20.6,G,G,695,constructed,2.346831725600425,48.84883069585632,75105,2,id_rnb,bdnb-bg-E3V1-TNJV-968Y,19.2,241,46.8,1905,BRIQUES,INDETERMINE,7,24,Résidentiel collectif,,Non exposé,Géorisques
2675E1536567V,2026-06-08,2HJSJJVRNJTZ,75117_7593_00032,32 Rue Poncelet 75017 Paris,75017,Paris,75,appartement,avant 1948,,56.2,E,E,263,constructed,2.29827156725932,48.879582642613876,75117,1,id_rnb,bdnb-bg-EVXL-ZDD9-3LXS,15.7,227,40.0,1870,MEULIERE - PIERRE,ARDOISES - ZINC ALUMINIUM,7,20,Résidentiel collectif,,Non exposé,Géorisques
2675E1529092I,2026-06-08,5WPTRWP2VEHN,75117_3549_00021,21 Rue de la Félicité 75017 Paris,75017,Paris,75,appartement,1948-1974,1961,70,E,E,313.4,constructed,2.31010706583553,48.88719718485964,75117,2,id_rnb,bdnb-bg-UYGJ-9FTW-Y6XL,10.4,405,43.0,1961,BRIQUES - PIERRE,ZINC ALUMINIUM,8,14,Résidentiel collectif,,Non exposé,Géorisques
2675E1538114I,2026-06-08,A24CG3CV3WFE,75118_7564_00016,16 Rue des Poissonniers 75018 Paris,75018,Paris,75,appartement,avant 1948,1825,18.7,G,C,708,constructed,2.350809183614152,48.88658806687836,75118,2,id_rnb,bdnb-bg-E4MQ-2EY4-E6SR,19.3,394,66.3,1825,BOIS - MEULIERE,ZINC ALUMINIUM,6,45,Résidentiel collectif,,Non exposé,Géorisques
2675E1532132G,2026-06-08,E9ABSQ8VA3TZ,75107_0620_00040,40 Rue du Bac 75007 Paris,75007,Paris,75,maison,avant 1948,,157.3,C,A,127,constructed,2.326528375768765,48.8572058881971,75107,1,id_rnb,bdnb-bg-C3XT-EF61-YTNH,15.8,398,34.0,,PIERRE,ARDOISES,5,10,Résidentiel collectif,,Non exposé,Géorisques
2675E1537278E,2026-06-08,YQJ3HAKSSRNG,75106_8484_00030,30 Rue Saint-André des Arts 75006 Paris,75006,Paris,75,appartement,avant 1948,,43.7,E,C,324,constructed,2.342144650214002,48.85345203570362,75106,2,id_rnb,bdnb-bg-Y1K7-LHU6-D32X,19.2,438,32.4,,INDETERMINE,ARDOISES - TUILES,4,24,Tertiaire & Autres,,Non exposé,Géorisques
2675E1528273V,2026-06-08,D75XZSYVJVT3,75116_9107_00011,11 Boulevard Suchet 75016 Paris,75016,Paris,75,appartement,1948-1974,,31.6,E,E,270,constructed,2.266743958399409,48.85994404601179,75116,1,id_rnb,bdnb-bg-CN39-MRJE-ZBK2,30.5,722,52.0,1972,BETON,BETON,11,81,Résidentiel collectif,,Non exposé,Géorisques
2675E1531594O,2026-06-08,XBPDJ5P4DZYQ,75118_6946_00075,75 Boulevard Ornano 75018 Paris,75018,Paris,75,appartement,avant 1948,,31.9,E,C,338,constructed,2.344719275657032,48.89714483971723,75118,1,id_rnb,bdnb-bg-56PU-UZNF-P87N,20.7,118,52.0,1890,MEULIERE - PIERRE,ZINC ALUMINIUM,7,25,Résidentiel collectif,,Non exposé,Géorisques
2675E1528801D,2026-06-08,XJPHFZ9WFDGA,75107_6160_00008,8 Rue Masseran 75007 Paris,75007,Paris,75,appartement,1948-1974,,68.5,C,C,141,constructed,2.313784368191214,48.84845928704439,75107,1,id_rnb,bdnb-bg-XKW8-T69F-L5U5,24.6,505,39.0,1973,BETON,BETON - AUTRES,11,218,Résidentiel collectif,,Non exposé,Géorisques
2675E1531028U,2026-06-08,QPA38FAKVWVV,75116_3663_00005,5 Boulevard Flandrin 75016 Paris,75016,Paris,75,appartement,1948-1974,,16.5,C,C,116,constructed,2.271692955759742,48.86467322955002,75116,1,id_rnb,bdnb-bg-AAUP-ASMZ-WKR2,29.9,389,51.0,1954,BETON - PIERRE,BETON,10,82,Résidentiel collectif,,Non exposé,Géorisques
2675E1538495Z,2026-06-08,P9Q2T3B5RYST,75118_0051_00006,6 Rue Achille Martinet 75018 Paris,75018,Paris,75,appartement,1948-1974,,42.2,D,D,182,constructed,2.337095738150128,48.89200642847631,75118,5,id_rnb,bdnb-bg-CTEQ-GNSS-65MQ,25.6,967,65.0,1973,AGGLOMERE - BETON,BETON,10,89,Résidentiel collectif,,Non exposé,Géorisques
2675E1532258C,2026-06-08,CCPSP2SZPSW5,75111_3985_00010,10 Villa Gaudelet 75011 Paris,75011,Paris,75,appartement,avant 1948,,18.3,G,C,561,constructed,2.379236829706148,48.865376491725186,75111,1,id_rnb,bdnb-bg-ZDMC-GSZ8-8JCW,4.8,86,50.9,1850,INDETERMINE,INDETERMINE,3,24,Résidentiel collectif,,Non exposé,Géorisques
2675E1538621V,2026-06-08,TN4NRQCB4683,75109_2990_00071,71 Rue de Dunkerque 75009 Paris,75009,Paris,75,appartement,avant 1948,1930,21.5,F,F,396,constructed,2.347505336390975,48.88156519703341,75109,1,id_rnb,bdnb-bg-UKEE-A9K9-UQUS,26.4,1032,56.6,1930,BETON - PIERRE,BETON,9,99,Résidentiel collectif,,Non exposé,Géorisques
2675E1537136S,2026-06-08,E8DG8T9KXYNG,75113_1040_00099,99 Rue Bobillot 75013 Paris,75013,Paris,75,appartement,1948-1974,,51.1,C,C,113,constructed,2.349080988903799,48.824291193861136,75113,2,id_rnb,bdnb-bg-54L7-7N5J-T1XZ,24.8,250,46.7,1962,AGGLOMERE,BETON,10,40,Résidentiel collectif,,Non exposé,Géorisques
2675E1536306U,2026-06-08,DEVJKGWRP7M6,75117_5235_00010,10 Rue Lacroix 75017 Paris,75017,Paris,75,appartement,avant 1948,,11.2,D,B,334,constructed,2.322291248846305,48.89004621485441,75117,1,id_rnb,bdnb-bg-3GTB-YCPN-2DUP,19.2,65,45.3,1870,PIERRE,ARDOISES,5,13,Résidentiel collectif,,Non exposé,Géorisques
2675E1538561N,2026-06-08,EG5J7BSQR5QV,75103_6517_00004,4 Rue de Montmorency 75003 Paris,75003,Paris,75,appartement,avant 1948,,46.1,E,E,243,constructed,2.357190063880415,48.862594002243,75103,1,id_rnb,bdnb-bg-9UEU-SWNU-XP8W,12.5,323,34.9,1952,AUTRES,INDETERMINE,5,7,Résidentiel collectif,,Non exposé,Géorisques
2675E1532077D,2026-06-08,HM5YG3YVQEKK,75118_2929_00004,4 Rue Drevet 75018 Paris,75018,Paris,75,appartement,avant 1948,,25.9,E,B,288,constructed,2.340608882003878,48.88517145100181,75118,1,id_rnb,bdnb-bg-EM6C-XBP8-EU2T,14.5,63,98.3,1830,MEULIERE,ZINC ALUMINIUM,5,8,Résidentiel collectif,,Non exposé,Géorisques
2675E1529057Z,2026-06-08,EZEBQJZCRENM,75116_9761_00007,7 Avenue Victor Hugo 75016 Paris,75016,Paris,75,appartement,avant 1948,,115.6,C,C,110,constructed,2.292636448862348,48.872528210934924,75116,1,id_rnb,bdnb-bg-DJNB-E3H9-S29C,23.0,328,56.2,1900,BETON - PIERRE,ARDOISES - TUILES,7,13,Résidentiel collectif,,Non exposé,Géorisques
2675E1538556I,2026-06-08,YV6FY9VPYYAA,75118_5995_00185,185 Rue Marcadet 75018 Paris,75018,Paris,75,appartement,avant 1948,,73.9,C,B,160,constructed,2.335291050298363,48.89149424597598,75118,1,id_rnb,bdnb-bg-JGAA-8P6W-F9RC,1.2,150,71.5,2002,INDETERMINE,INDETERMINE,4,4,Résidentiel collectif,,Non exposé,Géorisques
2675E1526951Z,2026-06-08,HN2GDAK4BKNC,75114_2236_00033,33 Rue du Commandant René Mouchotte 75014 Paris,75014,Paris,75,appartement,1948-1974,,27.5,D,C,206,constructed,2.319665702100896,48.83770450632072,75114,1,id_rnb,bdnb-bg-BMM6-YYCH-SZL4,52.0,776,63.3,1976,BETON,AUTRES,17,187,Résidentiel collectif,,Non exposé,Géorisques
2675E1533085X,2026-06-08,J5A7MNHS2X9H,75103_8692_00019,19 Boulevard Saint-Martin 75003 Paris,75003,Paris,75,appartement,avant 1948,1870,44.5,E,C,290,constructed,2.359862830275581,48.868011635318005,75103,2,id_rnb,bdnb-bg-4BK9-DY8K-HMN4,22.5,401,38.9,1870,MEULIERE,ZINC ALUMINIUM,8,37,Résidentiel collectif,,Non exposé,Géorisques
2675E1538625Z,2026-06-08,K98E3E8KWKGH,75118_5995_00190,190 Rue Marcadet 75018 Paris,75018,Paris,75,appartement,avant 1948,1900,45.6,G,F,448.1,constructed,2.336224344755497,48.89169248614506,75118,3,id_rnb,bdnb-bg-E59L-3K3T-Y8DB,18.4,132,64.9,1900,BRIQUES - PIERRE,ZINC ALUMINIUM,6,9,Résidentiel collectif,,Non exposé,Géorisques
2675E1526636W,2026-06-08,16M42VNZ5WYC,75120_9802_00061,61 Rue des Vignoles 75020 Paris,75020,Paris,75,appartement,avant 1948,1911,36.2,D,B,209.7,constructed,2.400953578072924,48.85496744675935,75120,1,id_rnb,bdnb-bg-2UZ9-MMJ1-8APQ,21.5,190,60.6,1911,BRIQUES - PIERRE,INDETERMINE,7,36,Résidentiel collectif,,Non exposé,Géorisques
2675E1537545L,2026-06-08,Y8SRBAK1MDCR,75103_3196_00011_b,11b Rue Elzévir 75003 Paris,75003,Paris,75,appartement,avant 1948,,93.9,D,D,166,constructed,2.361659897768529,48.85877464225027,75103,2,id_rnb,bdnb-bg-RPTM-PW13-THEW,19.4,455,35.0,1894,INDETERMINE,INDETERMINE,7,24,Résidentiel collectif,,Non exposé,Géorisques
2675E1538956S,2026-06-08,S3D9W7E28E87,75112_1794_00029,29 Rue de Charenton 75012 Paris,75012,Paris,75,appartement,avant 1948,,9,E,C,541,constructed,2.371446335630171,48.852234583498316,75112,1,id_rnb,bdnb-bg-8LQL-BKM3-L4WG,12.3,145,35.6,1800,PIERRE,TUILES,5,10,Résidentiel collectif,,Non exposé,Géorisques
2675E1537987L,2026-06-08,PEK8PWKD8BPS,75108_2185_00012,12 Rue du Colisée 75008 Paris,75008,Paris,75,appartement,avant 1948,1890,59.5,E,C,320.2,constructed,2.308517001425093,48.87053368867378,75108,1,id_rnb,bdnb-bg-2HKY-FHZU-MBN8,21.0,387,35.0,1890,BRIQUES,ARDOISES,7,24,Résidentiel collectif,,Non exposé,Géorisques
2675E1538429L,2026-06-08,QGNEW1N2ZA6Q,75101_6513_00011,11 Rue Montmartre 75001 Paris,75001,Paris,75,appartement,avant 1948,,62.6,E,E,298,constructed,2.345291834300342,48.864185660604505,75101,2,id_rnb,bdnb-bg-DK14-HZ47-EUBW,20.0,233,32.0,1890,MEULIERE,ZINC ALUMINIUM,7,19,Résidentiel collectif,,Non exposé,Géorisques
2675E1535838U,2026-06-08,TTH3ZSQYP8W4,75116_0594_00072,72 Rue d'Auteuil 75016 Paris,75016,Paris,75,appartement,1948-1974,,24,F,F,354,constructed,2.261058698695103,48.848050809204764,75116,1,id_rnb,bdnb-bg-94N2-6YA8-HM7M,22.9,221,42.3,1963,BETON,AUTRES,9,18,Résidentiel collectif,,Non exposé,Géorisques
2675E1531851L,2026-06-08,K44XJF1DZV1J,75110_9100_00007,7 Boulevard de Strasbourg 75010 Paris,75010,Paris,75,appartement,avant 1948,,96.1,D,B,197,constructed,2.354292294095452,48.869836563516316,75110,2,id_rnb,bdnb-bg-2ZWL-FAJY-7S59,8.1,138,36.7,1800,PIERRE,TUILES,7,30,Résidentiel collectif,,Non exposé,Géorisques
2675E1536837F,2026-06-08,9CYBCMHDAAGQ,75107_0620_00065,65 Rue du Bac 75007 Paris,75007,Paris,75,appartement,avant 1948,,49.1,E,B,265,constructed,2.325027614722862,48.85528011937569,75107,1,id_rnb,bdnb-bg-487E-BJMK-G88G,14.5,167,34.0,1880,PIERRE,ARDOISES - ZINC ALUMINIUM,8,28,Résidentiel collectif,,Non exposé,Géorisques
2675E1536279T,2026-06-08,WEXG6WX4GV2D,75115_5052_00010,10 Rue Juge 75015 Paris,75015,Paris,75,appartement,1989-2000,,37.9,E,B,261,constructed,2.292183255528357,48.85005934321045,75115,2,id_rnb,bdnb-bg-37HU-A6PV-16Y1,14.1,327,34.0,1991,INDETERMINE,INDETERMINE,6,18,Résidentiel collectif,,Non exposé,Géorisques
2675E1537621J,2026-06-08,S68TDRH5APG1,75108_7612_00027,27 Rue de Ponthieu 75008 Paris,75008,Paris,75,appartement,avant 1948,,38.2,D,B,211,constructed,2.308884607049952,48.87058239498617,75108,1,id_rnb,bdnb-bg-ZXYB-2SSH-3UFK,20.0,553,35.0,,INDETERMINE,INDETERMINE,9,1,Tertiaire & Autres,,Non exposé,Géorisques
2675E1538378M,2026-06-08,Y9E6RNRAB2GW,75116_4428_00002,2 Rue Gustave Zédé 75016 Paris,75016,Paris,75,appartement,avant 1948,,123.6,D,B,243,constructed,2.272958359859582,48.85622329374111,75116,2,id_rnb,bdnb-bg-LTPE-LBQW-XDFA,19.2,156,48.6,1910,PIERRE,ZINC ALUMINIUM,7,8,Résidentiel collectif,,Non exposé,Géorisques
2675E1537643F,2026-06-08,EF67Y6SJVN19,75112_2584_00170,170 Avenue Daumesnil 75012 Paris,75012,Paris,75,appartement,avant 1948,,32.5,F,C,396,constructed,2.393973457005433,48.839749396513504,75112,1,id_rnb,bdnb-bg-B8EP-5J8P-MLB2,21.4,196,48.0,1880,BRIQUES - PIERRE,INDETERMINE,7,20,Résidentiel collectif,,Non exposé,Géorisques
2675E1535949B,2026-06-08,MXEGGPMXVP2D,75111_3008_00018,18 Cité Dupont 75011 Paris,75011,Paris,75,appartement,avant 1948,,21.2,D,B,235,constructed,2.380946902347911,48.86282791138658,75111,2,id_rnb,bdnb-bg-GJJD-Q6X6-6VZE,15.6,258,44.0,1870,BOIS - MEULIERE,ZINC ALUMINIUM,6,33,Résidentiel collectif,,Non exposé,Géorisques
2675E1533851J,2026-06-08,Z7ME5VDVJ8B7,75120_0833_00324,324 Rue de Belleville 75020 Paris,75020,Paris,75,appartement,avant 1948,,36.8,E,C,315,constructed,2.405766046614657,48.87679404258939,75120,2,id_rnb,bdnb-bg-ZXC3-FJ17-1TY6,20.5,308,118.0,1900,PIERRE,TUILES,7,40,Résidentiel collectif,,Non exposé,Géorisques
2675E1535525T,2026-06-08,VYVNAJVPYK8Y,75117_2112_00083,83 Avenue de Clichy 75017 Paris,75017,Paris,75,appartement,avant 1948,1900,47,D,D,188.4,constructed,2.323891252751364,48.88826470495958,75117,1,id_rnb,bdnb-bg-X5G2-LSYH-C99X,19.4,142,58.0,1900,BRIQUES - PIERRE,ZINC ALUMINIUM,7,12,Résidentiel collectif,,Non exposé,Géorisques
2675E1530410A,2026-06-08,B9W8XRDJK11D,75120_3933_00030,30 Avenue Gambetta 75020 Paris,75020,Paris,75,appartement,avant 1948,,19.7,G,C,653,constructed,2.396542751846495,48.8648432345573,75120,1,id_rnb,bdnb-bg-UGTV-G1SQ-CMLB,18.9,86,88.2,1893,BRIQUES - AUTRES,ARDOISES - ZINC ALUMINIUM,7,23,Résidentiel collectif,,Non exposé,Géorisques
2666E1535171U,2026-06-08,RAK6KEP6F2TD,75119_3221_00025,25 Rue Emile Desvaux 75019 Paris,75019,Paris,75,appartement,1948-1974,1969,89.7,D,D,219.4,constructed,2.911334887545479,42.68936422248498,66136,2,id_rnb,bdnb-bg-2BSF-X2PC-Z29Y,12.7,340,39.6,1969,BETON - BRIQUES,TUILES,6,10,Résidentiel collectif,Moyen,Moyen,BDNB
2675E1526427V,2026-06-08,349QV5R71PXF,75116_4141_00042,42 Avenue Georges Mandel 75016 Paris,75016,Paris,75,appartement,1948-1974,1970,30.1,D,D,210.6,constructed,2.280751507904249,48.8643179027556,75116,1,id_rnb,bdnb-bg-WU11-39A3-J8J1,20.3,300,61.0,1911,BRIQUES - PIERRE,ARDOISES - ZINC ALUMINIUM,7,10,Résidentiel collectif,,Non exposé,Géorisques
2675E1535679R,2026-06-08,ZFJPZPNWNRJK,75115_3289_00039,39 Rue des Entrepreneurs 75015 Paris,75015,Paris,75,appartement,avant 1948,,60.4,E,C,290,constructed,2.286740559217216,48.84635986111951,75115,2,id_rnb,bdnb-bg-HMBB-LYGP-61ES,23.1,340,32.3,1900,BRIQUES - PIERRE,BETON - ZINC ALUMINIUM,7,25,Résidentiel collectif,,Non exposé,Géorisques
2675E1537121D,2026-06-08,7WV6TZTRXBJK,75107_5308_00013_b,13b Avenue de la Motte-Picquet 75007 Paris,75007,Paris,75,appartement,avant 1948,,9.3,F,C,566,constructed,2.308720920974323,48.85611610261446,75107,1,id_rnb,bdnb-bg-5PAS-2KGR-M8XQ,21.7,164,36.0,1880,MEULIERE - PIERRE,ARDOISES,8,21,Résidentiel collectif,,Non exposé,Géorisques
2675E1535154M,2026-06-08,B5ZR3Q4JT8TN,75117_5228_00046,46 Rue la Condamine 75017 Paris,75017,Paris,75,immeuble,avant 1948,,,F,C,374,constructed,2.322203173073533,48.88633740731325,75117,2,id_rnb,bdnb-bg-FKZ2-4B2C-FPBG,17.1,151,54.0,1890,BRIQUES - MEULIERE,ARDOISES - ZINC ALUMINIUM,6,5,Résidentiel collectif,,Non exposé,Géorisques
2675E1525464U,2026-06-07,F97QX2GYXN47,75111_3737_00019,19 Rue de la Forge Royale 75011 Paris,75011,Paris,75,appartement,avant 1948,,119.6,E,C,300,constructed,2.38052921150144,48.8517602761944,75111,1,id_rnb,bdnb-bg-TXN2-N8X4-8H6L,16.4,200,36.0,1880,BRIQUES - MEULIERE,ZINC ALUMINIUM,6,22,Résidentiel collectif,,Non exposé,Géorisques
2675E1525557J,2026-06-07,S4V2EPC3EQTV,75115_3227_00010,10 Rue Emile Duclaux 75015 Paris,75015,Paris,75,appartement,avant 1948,,87,D,D,206,constructed,2.308413579076965,48.84266750507326,75115,4,id_rnb,bdnb-bg-GJJJ-T8WB-CH71,20.9,845,40.6,1931,BRIQUES - PIERRE,BETON,9,87,Résidentiel collectif,,Non exposé,Géorisques
2675E1524219X,2026-06-07,HQXDY1XD288K,75107_3023_00037,37 Avenue Duquesne 75007 Paris,75007,Paris,75,appartement,avant 1948,,107.8,F,C,367,constructed,2.310697943365664,48.85168374003534,75107,1,id_rnb,bdnb-bg-4TV1-E3J9-ZE3M,22.9,363,37.0,1898,PIERRE - AUTRES,ARDOISES - AUTRES,7,11,Résidentiel collectif,,Non exposé,Géorisques
2675E1525139H,2026-06-07,HRG44BH2VQJG,75115_6377_00030,30 Rue Miollis 75015 Paris,75015,Paris,75,appartement,1948-1974,,111.1,D,C,184,constructed,2.30312689529235,48.84624656915777,75115,7,id_rnb,bdnb-bg-LJRN-ABEM-2VT5,38.2,2736,36.0,1976,BETON,BETON,15,555,Résidentiel collectif,,Non exposé,Géorisques
2675E1530384A,2026-06-08,6SJN2N75XD5J,75118_8014_00061,61 Rue Ramey 75018 Paris,75018,Paris,75,appartement,1948-1974,1949,20.5,E,B,326,constructed,2.345307270136491,48.89053219869548,75118,1,adresse_ban,bdnb-bg-5NNW-75C9-CVMT,14.1,247,66.3,1880,BRIQUES - MEULIERE,ZINC ALUMINIUM,6,23,Résidentiel collectif,,Non exposé,Géorisques
2675E1536603F,2026-06-08,56C61VNZCHDE,75116_3696_00065,65 Avenue Foch 75016 Paris,75016,Paris,75,appartement,avant 1948,,133,E,E,252,constructed,2.280189843031913,48.87148639454536,75116,3,adresse_ban,bdnb-bg-BLQA-QYCA-ZRFD,26.9,1206,46.1,1959,INDETERMINE,INDETERMINE,10,55,Résidentiel collectif,,Non exposé,Géorisques
2675E1530536W,2026-06-08,RHFA83KYBSH3,75113_3128_00007,7 Rue Edmond Gondinet 75013 Paris,75013,Paris,75,appartement,avant 1948,,37.6,F,F,385,constructed,2.347594458255439,48.83045670382093,75113,2,adresse_ban,bdnb-bg-9WM9-Y5Z1-V46T,23.2,255,43.0,1915,PIERRE,ARDOISES - ZINC ALUMINIUM,8,30,Résidentiel collectif,,Non exposé,Géorisques
2675E1530213L,2026-06-08,4N72JC9A8TK5,75112_3074_00008,8 Rue Ebelmen 75012 Paris,75012,Paris,75,appartement,avant 1948,,41,E,C,284,constructed,2.387416709107864,48.843955210323585,75112,1,adresse_ban,bdnb-bg-BFJX-941T-9B3D,18.6,151,41.4,1890,BRIQUES - MEULIERE,ZINC ALUMINIUM,7,21,Résidentiel collectif,,Non exposé,Géorisques
2675E1536215H,2026-06-08,HEMHFTAXXPCN,75117_9487_00032,32 Rue Truffaut 75017 Paris,75017,Paris,75,appartement,avant 1948,,9,F,C,633,constructed,2.322069694807878,48.88558339182592,75117,1,adresse_ban,bdnb-bg-QPBU-GGXW-MQVB,13.4,87,55.1,1860,BRIQUES - PIERRE,ARDOISES,7,31,Résidentiel collectif,,Non exposé,Géorisques
2675E1525758C,2026-06-08,8F6MFYXFJ92K,75112_2584_00268,268 Avenue Daumesnil 75012 Paris,75012,Paris,75,appartement,1948-1974,,29.5,C,A,164,constructed,2.404432875036343,48.83559186077221,75112,2,adresse_ban,bdnb-bg-TM7R-2XRP-LCX9,7.8,1307,41.9,1992,INDETERMINE,INDETERMINE,9,58,Résidentiel collectif,,Non exposé,Géorisques
2675E1527029Z,2026-06-08,VV33YTGHJKZE,75106_9634_00018,18 Rue Vavin 75006 Paris,75006,Paris,75,appartement,avant 1948,,37,E,C,316,constructed,2.330351638522691,48.84399877315032,75106,2,adresse_ban,bdnb-bg-G3TA-RTK5-ALHV,20.2,497,46.0,1880,BRIQUES - MEULIERE,ARDOISES - ZINC ALUMINIUM,7,24,Résidentiel collectif,,Non exposé,Géorisques
2675E1535793B,2026-06-08,71CPDBEKXGDC,75107_1119_00014_t,14t Avenue Bosquet 75007 Paris,75007,Paris,75,appartement,avant 1948,,30.7,C,B,194,constructed,2.302834953491816,48.859480279505235,75107,1,adresse_ban,bdnb-bg-Z3CU-X146-ZP1S,21.3,305,33.0,2002,INDETERMINE,ARDOISES,6,12,Résidentiel collectif,,Non exposé,Géorisques
2675E1533713B,2026-06-08,C5J9GS11S2DV,75114_0233_00021,21 Rue Alphonse Daudet 75014 Paris,75014,Paris,75,appartement,avant 1948,,84.2,C,C,143,constructed,2.326868923510751,48.82663591665282,75114,1,adresse_ban,bdnb-bg-WMBV-LJHP-XWEU,22.9,112,67.4,1880,PIERRE,ARDOISES,7,10,Résidentiel collectif,,Non exposé,Géorisques
2675E1528786O,2026-06-08,HFHQYXEJXZGW,75105_3890_00003,3 Rue Fustel de Coulanges 75005 Paris,75005,Paris,75,appartement,avant 1948,,47.4,E,E,317,constructed,2.33911436321802,48.839737320723586,75105,1,adresse_ban,bdnb-bg-Y71N-X1TU-2QUV,22.5,65,54.0,1890,MEULIERE - PIERRE,ARDOISES,7,30,Résidentiel collectif,,Non exposé,Géorisques
2675E1536933X,2026-06-08,ZKBW7DVFMESM,75112_9047_00087,87 Boulevard Soult 75012 Paris,75012,Paris,75,appartement,avant 1948,1896,26.5,G,C,470.4,constructed,2.409253333754583,48.842144950745094,75112,1,adresse_ban,bdnb-bg-Z2GC-RS9B-K5ZS,11.2,191,50.8,,AGGLOMERE,INDETERMINE,6,14,Résidentiel collectif,,Non exposé,Géorisques
2675E1526990M,2026-06-08,FAFTJDT5KZVF,75109_6425_00003,3 Square Moncey 75009 Paris,75009,Paris,75,appartement,avant 1948,,210.3,E,E,283,constructed,2.330308020154883,48.8804756153194,75109,1,adresse_ban,bdnb-bg-H65L-L41D-APXL,20.3,285,46.8,1903,MEULIERE - PIERRE,ARDOISES - ZINC ALUMINIUM,7,8,Résidentiel collectif,,Non exposé,Géorisques
2675E1531153P,2026-06-08,NK4RF6DWKXNQ,75110_9848_00030,30 Rue des Vinaigriers 75010 Paris,75010,Paris,75,appartement,avant 1948,,48.7,E,C,304,constructed,2.362702691289,48.87334550983799,75110,2,adresse_ban,bdnb-bg-FHB1-MTAH-BHDR,11.5,554,38.5,1780,BRIQUES,ZINC ALUMINIUM,4,17,Résidentiel collectif,,Non exposé,Géorisques
2675E1536871N,2026-06-08,XV698EX39QA6,75118_2578_00004,4 Rue Darwin 75018 Paris,75018,Paris,75,appartement,avant 1948,,32.3,D,B,216,constructed,2.339914859447269,48.89028939326111,75118,1,adresse_ban,bdnb-bg-AUBB-J6L1-6U2Y,12.4,24,75.4,1900,AGGLOMERE - BRIQUES,INDETERMINE,7,35,Résidentiel collectif,,Non exposé,Géorisques
2675E1536873P,2026-06-08,7VE5N2E9GGAH,75118_6955_00033,33 Rue d'Orsel 75018 Paris,75018,Paris,75,appartement,avant 1948,1900,23,D,B,223,constructed,2.343687342888129,48.88361292172782,75118,3,adresse_ban,bdnb-bg-12DS-GJ7E-5JYM,8.6,244,69.4,1914,MEULIERE,ZINC ALUMINIUM,4,13,Résidentiel collectif,,Non exposé,Géorisques
2675E1530112O,2026-06-08,HRQDKGZR6HVD,75120_9132_00031,31 Rue du Surmelin 75020 Paris,75020,Paris,75,appartement,1948-1974,,126.4,F,C,377,constructed,2.40467131368676,48.8689906285738,75120,3,adresse_ban,bdnb-bg-TX35-MGE4-SP8X,13.7,187,97.0,1951,BETON - BRIQUES,ZINC ALUMINIUM,3,2,Résidentiel collectif,,Non exposé,Géorisques
2675E1528934G,2026-06-08,KFGT9TC7RPQV,75118_7770_00018,18 Rue Poulet 75018 Paris,75018,Paris,75,appartement,avant 1948,,24.1,G,C,521,constructed,2.348968317436419,48.88687843763359,75118,1,adresse_ban,bdnb-bg-TXYK-Y29A-TNAH,15.7,211,72.1,1880,PIERRE,ZINC ALUMINIUM,7,21,Résidentiel collectif,,Non exposé,Géorisques
2675E1537315P,2026-06-08,3YX93S9KVFAX,75115_2713_00038,38 Rue Desaix 75015 Paris,75015,Paris,75,appartement,avant 1948,,84,F,F,370,constructed,2.291993139590923,48.8521760004143,75115,1,adresse_ban,bdnb-bg-X32F-9QHA-JXL9,20.6,265,33.0,1910,BRIQUES - PIERRE,ARDOISES - ZINC ALUMINIUM,8,20,Résidentiel collectif,,Non exposé,Géorisques
2675E1535370U,2026-06-08,ZZNZJ5BY2ZTK,75110_3508_00127,127 Rue du Faubourg du Temple 75010 Paris,75010,Paris,75,appartement,avant 1948,,32,E,C,321,constructed,2.375372910888803,48.87172492392433,75110,1,adresse_ban,bdnb-bg-JP62-P4CL-A4FN,16.7,630,50.0,1900,AGGLOMERE - BOIS,TUILES - ZINC ALUMINIUM,7,54,Résidentiel collectif,,Non exposé,Géorisques
2675E1528136O,2026-06-08,3TB9Y43B5TQJ,75108_4485_00176,176 Boulevard Haussmann 75008 Paris,75008,Paris,75,appartement,avant 1948,,29.5,D,B,267,constructed,2.307582145692326,48.87535824177989,75108,1,adresse_ban,bdnb-bg-CSZ4-NLQ1-QP73,23.8,361,39.1,1800,INDETERMINE,ARDOISES - ZINC ALUMINIUM,7,20,Résidentiel collectif,,Non exposé,Géorisques
2675E1536591T,2026-06-08,N5D1VDZAAVWT,75115_9624_00405,405 Rue de Vaugirard 75015 Paris,75015,Paris,75,appartement,1948-1974,1948,49.5,E,E,304,constructed,2.289008281296798,48.83294482902876,75115,1,adresse_ban,bdnb-bg-C8LU-8NCY-TFRY,20.1,35,38.6,,,,,,,,Non exposé,Géorisques
2675E1536094Q,2026-06-08,NVXN7KAHPZJD,75111_5107_00014,14 Rue Jules Vallès 75011 Paris,75011,Paris,75,appartement,avant 1948,,45,E,B,265,constructed,2.385307184981037,48.853848533589755,75111,1,adresse_ban,bdnb-bg-H1E5-CMU9-REZ3,19.8,209,41.7,1910,PIERRE,ZINC ALUMINIUM,7,13,Résidentiel collectif,,Non exposé,Géorisques
2675E1531104S,2026-06-08,6M2Z74FJ4S3B,75110_9838_00047,47 Boulevard de la Villette 75010 Paris,75010,Paris,75,appartement,avant 1948,,29.2,E,C,347,constructed,2.372968821910614,48.875247849519866,75110,2,adresse_ban,bdnb-bg-UP5J-HYHU-D2VQ,16.6,180,56.6,1880,AGGLOMERE - BRIQUES,TUILES - ZINC ALUMINIUM,5,17,Résidentiel collectif,,Non exposé,Géorisques
2675E1526010U,2026-06-08,NR2DKBYW4T31,75117_2387_00087,87 Rue de Courcelles 75017 Paris,75017,Paris,75,appartement,avant 1948,,144,F,F,397,constructed,2.302019746584336,48.87999201682538,75117,2,adresse_ban,bdnb-bg-8H6V-M9Z8-CAMF,22.4,395,41.9,1912,PIERRE,ZINC ALUMINIUM,9,16,Résidentiel collectif,,Non exposé,Géorisques
2675E1534466A,2026-06-08,TR1P81CGWSP7,75116_0503_00032,32 Rue de l'Assomption 75016 Paris,75016,Paris,75,appartement,avant 1948,1933,43.6,G,F,421.4,constructed,2.272141037227082,48.85396749323481,75116,1,adresse_ban,bdnb-bg-UNLE-5CVR-ACBR,28.0,329,36.0,1933,BRIQUES - PIERRE,ARDOISES - ZINC ALUMINIUM,9,40,Résidentiel collectif,,Non exposé,Géorisques
2675E1536979R,2026-06-08,KP91KTG8D352,75108_4645_00036,36 Avenue Hoche 75008 Paris,75008,Paris,75,appartement,avant 1948,,81.1,D,D,219,constructed,2.298953251244747,48.87605035131439,75108,1,adresse_ban,bdnb-bg-HM3Y-DLEP-KFDM,30.3,1095,47.4,1931,BRIQUES - PIERRE,ARDOISES - BETON,9,34,Tertiaire & Autres,,Non exposé,Géorisques
2675E1538616Q,2026-06-08,KYK8XT61QTM3,75112_5063_00011,11 Rue Jules César 75012 Paris,75012,Paris,75,appartement,1948-1974,1970,42.1,D,D,245.7,constructed,2.369538000345981,48.84912156031723,75112,2,adresse_ban,bdnb-bg-M3XJ-NGNT-LBUX,19.3,535,35.0,2010,INDETERMINE,INDETERMINE,6,22,Résidentiel collectif,,Non exposé,Géorisques
2675E1533405F,2026-06-08,M4ZDF9SJN41E,75112_5772_00034,34 Rue Louis Braille 75012 Paris,75012,Paris,75,appartement,avant 1948,,30.8,D,B,234,constructed,2.403610429076366,48.839637652170595,75112,1,adresse_ban,bdnb-bg-DPFY-J69N-CS7R,23.7,132,38.4,1900,BRIQUES - AUTRES,AUTRES,6,16,Résidentiel collectif,,Non exposé,Géorisques
2675E1536812G,2026-06-08,8H8XT3EA6SHV,75114_8649_00010,10 Villa Saint-Jacques 75014 Paris,75014,Paris,75,appartement,1948-1974,,75.2,D,D,209,constructed,2.33484674562318,48.83254855609138,75114,1,adresse_ban,bdnb-bg-4JHE-KQ6E-4TEU,19.2,328,59.0,1961,BETON - MEULIERE,BETON,7,18,Résidentiel collectif,,Non exposé,Géorisques
2675E1529765F,2026-06-08,XHE9XPNRP7BQ,75107_0618_00047,47 Rue de Babylone 75007 Paris,75007,Paris,75,appartement,avant 1948,,9.9,G,D,1095,constructed,2.318483022604664,48.85140951489582,75107,1,adresse_ban,bdnb-bg-TM1V-2P48-PTTH,5,35,38.0,1905,INDETERMINE,INDETERMINE,7,13,Résidentiel collectif,,Non exposé,Géorisques
2675E1539029N,2026-06-08,25QF3T5Z8BR1,75107_3093_00001,1 Place de l'Ecole Militaire 75007 Paris,75007,Paris,75,appartement,avant 1948,,36.7,C,A,177,constructed,2.306518195459977,48.854415811847915,75107,1,adresse_ban,bdnb-bg-AGKW-TUTA-WPBN,10.7,27,36.0,1870,MEULIERE - PIERRE,ARDOISES - ZINC ALUMINIUM,6,15,Résidentiel collectif,,Non exposé,Géorisques
2675E1537855J,2026-06-08,BHEFQQQFR8BS,75112_2816_00021,21 Avenue du Docteur Arnold Netter 75012 Paris,75012,Paris,75,appartement,1948-1974,,13.7,D,D,253,constructed,2.404733127687083,48.84229202805602,75112,4,adresse_ban,bdnb-bg-XSYR-AZQ7-9LKH,16.5,226,42.3,1967,BRIQUES,INDETERMINE,3,2,Résidentiel individuel,,Non exposé,Géorisques
2675E1534816M,2026-06-08,DRHRK7KY6MDM,75106_8735_00041,41 Rue Saint-Placide 75006 Paris,75006,Paris,75,appartement,avant 1948,1900,128,D,D,164.8,constructed,2.326176569908934,48.848117014714596,75106,1,adresse_ban,bdnb-bg-LHKL-7NJD-WQX8,21.7,255,39.3,1900,MEULIERE - PIERRE,ZINC ALUMINIUM,7,15,Résidentiel collectif,,Non exposé,Géorisques
2675E1535425X,2026-06-08,JG1726Q3S6FS,75111_8788_00005_b,5b Passage Salarnier 75011 Paris,75011,Paris,75,appartement,avant 1948,,54.8,D,B,185,constructed,2.373743709557667,48.857175390595344,75111,2,adresse_ban,bdnb-bg-XTCF-HWW2-BYJX,11.3,376,35.0,1850,PIERRE,TUILES - ZINC ALUMINIUM,4,7,Tertiaire & Autres,,Non exposé,Géorisques
2675E1531013F,2026-06-08,7ZK1Y1S6DJ18,75116_0722_00004,4 Rue des Bauches 75016 Paris,75016,Paris,75,appartement,avant 1948,,80.9,F,F,337,constructed,2.274447522499799,48.85587402732674,75116,1,adresse_ban,bdnb-bg-TV8R-AK83-R7Y4,22.6,254,45.5,1896,MEULIERE - PIERRE,ARDOISES - ZINC ALUMINIUM,6,13,Résidentiel collectif,,Non exposé,Géorisques
2675E1530349R,2026-06-08,4JZRBWZ84MRM,75110_6183_00092,92 Rue de Maubeuge 75010 Paris,75010,Paris,75,appartement,avant 1948,,10.7,G,D,1109,constructed,2.350746518142479,48.8799373094099,75110,2,adresse_ban,bdnb-bg-STE4-A42Z-Y9TH,20.7,249,49.6,1860,MEULIERE - PIERRE,ARDOISES - ZINC ALUMINIUM,7,22,Résidentiel collectif,,Non exposé,Géorisques
2675E1531854O,2026-06-08,K12GN7Z512TN,75116_7587_00088,88 Rue de la Pompe 75016 Paris,75016,Paris,75,appartement,avant 1948,,94.9,F,F,354,constructed,2.278273971727216,48.86455399080289,75116,1,adresse_ban,bdnb-bg-U8GK-3DK7-2VD9,18.9,120,57.5,1860,MEULIERE,ZINC ALUMINIUM,6,10,Résidentiel collectif,,Non exposé,Géorisques
2675E1531635D,2026-06-08,WYYGRFRK9A3C,75119_1576_00010,10 Rue des Carrières d'Amérique 75019 Paris,75019,Paris,75,appartement,avant 1948,,31.2,E,C,316,constructed,2.393071639242851,48.88463500362096,75119,2,adresse_ban,bdnb-bg-L4B8-C2KW-SFBN,2.2,112,66.5,1880,BRIQUES,TUILES,2,6,Résidentiel collectif,,Non exposé,Géorisques
2675E1526775F,2026-06-08,WTWK23XR2KRR,75104_6936_00012,12 Quai d'Orléans 75004 Paris,75004,Paris,75,appartement,avant 1948,,41.9,G,G,513,constructed,2.355239313487797,48.851462112276536,75104,2,adresse_ban,bdnb-bg-14KL-KZ7T-UWFV,16.9,158,37.0,1650,INDETERMINE,INDETERMINE,6,9,Résidentiel collectif,,Non exposé,Géorisques
2675E1529771L,2026-06-08,WEV49ZTFXY6B,75107_6535_00008,8 Rue de Monttessuy 75007 Paris,75007,Paris,75,appartement,avant 1948,,23.6,E,C,307,constructed,2.29982518770401,48.859873254508365,75107,1,adresse_ban,bdnb-bg-Z9F7-M5R8-3KRM,18.0,165,33.1,1890,BRIQUES,ARDOISES - ZINC ALUMINIUM,7,39,Résidentiel collectif,,Non exposé,Géorisques
2675E1533677R,2026-06-08,ZAVQNZ1EDFDR,75117_5642_00036,36 Rue de Lévis 75017 Paris,75017,Paris,75,appartement,avant 1948,,58.5,D,B,192,constructed,2.315164748850255,48.88323910430296,75117,1,adresse_ban,bdnb-bg-GDSJ-DT83-3KSV,10.9,232,49.2,1870,PIERRE,ZINC ALUMINIUM,4,31,Résidentiel collectif,,Non exposé,Géorisques
2675E1529901L,2026-06-08,D4B97PY4AFPN,75102_8212_00077,77 Rue de Richelieu 75002 Paris,75002,Paris,75,appartement,avant 1948,,57.2,E,E,284,constructed,2.338380650043005,48.868987392813565,75102,2,adresse_ban,bdnb-bg-KGSZ-7CJR-NZVF,19.9,262,35.2,1970,PIERRE,ZINC ALUMINIUM,7,11,Résidentiel collectif,,Non exposé,Géorisques
2675E1530345N,2026-06-08,929366G3FZ7J,75114_8061_00166,166 Rue Raymond Losserand 75014 Paris,75014,Paris,75,appartement,avant 1948,,36.1,E,B,271,constructed,2.310596435965919,48.83037888939424,75114,2,adresse_ban,bdnb-bg-TEXY-KGLU-YF58,22.2,275,60.2,1890,MEULIERE - PIERRE,ZINC ALUMINIUM,7,25,Résidentiel collectif,,Non exposé,Géorisques
2675E1534773V,2026-06-08,MPYGQ9P81PSD,75119_9058_00003,3 Cours du Septième Art 75019 Paris,75019,Paris,75,appartement,1989-2000,,33.4,C,A,158,constructed,2.386946304596325,48.87775199633572,75119,10,adresse_ban,bdnb-bg-XR84-48KZ-CG12,19.6,1615,99.9,2000,INDETERMINE,INDETERMINE,8,174,Résidentiel collectif,,Non exposé,Géorisques
2675E1532821T,2026-06-08,5H346YYWHYY8,75119_4903_00145,145 Avenue Jean Jaurès 75019 Paris,75019,Paris,75,appartement,avant 1948,,49.6,D,B,246,constructed,2.385052453702682,48.88714382084069,75119,1,adresse_ban,bdnb-bg-HVNJ-YPA5-LU3J,4.3,24,55.0,1910,INDETERMINE,INDETERMINE,8,41,Résidentiel collectif,,Non exposé,Géorisques
2675E1536908Y,2026-06-08,H71A83Y3KB4C,75107_3818_00007,7 Avenue Franco-Russe 75007 Paris,75007,Paris,75,appartement,1989-2000,,180.1,C,C,139,constructed,2.299634220426693,48.86010716878944,75107,1,adresse_ban,bdnb-bg-Z3YH-P5UF-6YLU,25.1,164,33.0,1991,BETON,ZINC ALUMINIUM,7,9,Résidentiel collectif,,Non exposé,Géorisques
2675E1535417P,2026-06-08,9DNZZ7F61VXX,75114_6776_00002,2 Rue Niepce 75014 Paris,75014,Paris,75,appartement,avant 1948,1900,19.5,G,C,552.9,constructed,2.317833717813531,48.83507918612973,75114,2,adresse_ban,bdnb-bg-1Q3D-HN26-DUY2,21.2,303,63.5,1890,PIERRE,ZINC ALUMINIUM,7,32,Résidentiel collectif,,Non exposé,Géorisques
2675E1538943F,2026-06-08,93MEDSCRS63P,75117_7258_00029,29 Boulevard Pereire 75017 Paris,75017,Paris,75,appartement,avant 1948,,11.3,F,C,568,constructed,2.309840796150852,48.887623757516714,75117,2,adresse_ban,bdnb-bg-5A9T-R69P-ZXZ9,17.2,351,43.1,1910,PIERRE,ZINC ALUMINIUM,7,17,Résidentiel collectif,,Non exposé,Géorisques
2675E1533722K,2026-06-08,91F6J3YYYBBE,75117_8718_00041,41 Avenue de Saint-Ouen 75017 Paris,75017,Paris,75,appartement,avant 1948,,32.6,E,C,314,constructed,2.326253004393026,48.890307204875796,75117,1,adresse_ban,bdnb-bg-719N-RLAR-PHY8,24.0,244,50.3,1900,PIERRE,ARDOISES - ZINC ALUMINIUM,8,31,Résidentiel collectif,,Non exposé,Géorisques
2675E1537908K,2026-06-08,XEGBBY5DKC8W,75114_8105_00033_b,33b Avenue Reille 75014 Paris,75014,Paris,75,appartement,avant 1948,,42.4,E,C,305,constructed,2.3350777611256,48.82385434969176,75114,1,adresse_ban,bdnb-bg-CHR7-N7TY-PQM6,15.4,625,67.6,1920,MEULIERE,AUTRES,6,49,Résidentiel collectif,,Non exposé,Géorisques
2675E1530706K,2026-06-08,TBB6FDMBHC12,75110_3512_00110,110 Rue du Faubourg Poissonnière 75010 Paris,75010,Paris,75,appartement,avant 1948,,48,E,E,303,constructed,2.349424317985695,48.87894663043548,75110,2,adresse_ban,bdnb-bg-R826-R6RH-34XN,20.2,494,46.4,1850,MEULIERE,ZINC ALUMINIUM,6,25,Résidentiel collectif,,Non exposé,Géorisques
2675E1528806I,2026-06-08,VYQ7MF1B6TFZ,75110_3086_00022,22 Rue des Ecluses Saint-Martin 75010 Paris,75010,Paris,75,appartement,1978-1982,1981,29,D,D,240,constructed,2.366678717608229,48.87709564156788,75110,9,adresse_ban,bdnb-bg-3NJT-9L9C-Z3T5,28.5,1969,46.3,1981,INDETERMINE,INDETERMINE,9,191,Résidentiel collectif,,Non exposé,Géorisques
2675E1536982U,2026-06-08,8HJZCY4EYHQ1,75115_0890_00009_b,9b Rue des Bergers 75015 Paris,75015,Paris,75,appartement,avant 1948,,13.5,D,D,335,constructed,2.282853822780654,48.84440294791648,75115,1,adresse_ban,bdnb-bg-3VGY-QVWB-E1AE,22.8,384,26.4,1850,BRIQUES - PIERRE,TUILES,7,88,Résidentiel collectif,,Non exposé,Géorisques
2675E1530084M,2026-06-08,PQR86DTBP1VS,75111_6989_00018,18 Rue Pache 75011 Paris,75011,Paris,75,appartement,avant 1948,,32.3,E,B,302,constructed,2.382866230873393,48.85917130318823,75111,2,adresse_ban,bdnb-bg-5VXC-DTZ5-985W,20.3,200,42.9,1887,BRIQUES - PIERRE,ZINC ALUMINIUM,7,24,Résidentiel collectif,,Non exposé,Géorisques
2675E1530923T,2026-06-08,EV6NWNAAFZ6V,75112_4394_00005,5 Rue Guillaumot 75012 Paris,75012,Paris,75,appartement,avant 1948,,47.2,E,C,305,constructed,2.37736196703352,48.84544073788223,75112,1,adresse_ban,bdnb-bg-9TH3-JGBS-5368,23.3,187,35.1,1930,BRIQUES - PIERRE,ARDOISES - ZINC ALUMINIUM,7,19,Résidentiel collectif,,Non exposé,Géorisques
2675E1537032S,2026-06-08,Y7RTBPBJ37QZ,75111_7090_00009,9 Rue Pasteur 75011 Paris,75011,Paris,75,appartement,avant 1948,,52,D,D,183,constructed,2.375249748822145,48.86221433739957,75111,1,adresse_ban,bdnb-bg-TXA4-G311-THL2,18.8,235,35.2,1890,PIERRE,ZINC ALUMINIUM,7,20,Résidentiel collectif,,Non exposé,Géorisques
2675E1532746W,2026-06-08,H381GV9XEKCX,75115_3498_00062,62 Rue Falguière 75015 Paris,75015,Paris,75,appartement,1948-1974,1962,62.1,C,C,144,constructed,2.313160985433535,48.84105572001877,75115,4,adresse_ban,bdnb-bg-8QY6-NJFJ-9N7N,21.3,270,50.4,1954,BETON - BRIQUES,ARDOISES - ZINC ALUMINIUM,8,34,Résidentiel collectif,,Non exposé,Géorisques
2675E1529831T,2026-06-08,VYQ7MF1B6TFZ,75110_3086_00022,22 Rue des Ecluses Saint-Martin 75010 Paris,75010,Paris,75,appartement,1978-1982,1981,31.6,C,C,193,constructed,2.366678717608229,48.87709564156788,75110,9,adresse_ban,bdnb-bg-3NJT-9L9C-Z3T5,28.5,1969,46.3,1981,INDETERMINE,INDETERMINE,9,191,Résidentiel collectif,,Non exposé,Géorisques
2675E1533980I,2026-06-08,1KG5KPM4ZWN4,75114_4590_00002_b,2b Rue Henri Regnault 75014 Paris,75014,Paris,75,appartement,avant 1948,,33,G,C,509,constructed,2.330786912999878,48.824571404449884,75114,1,adresse_ban,bdnb-bg-FVRY-XUP6-NNSA,22.0,194,71.7,1880,MEULIERE,ZINC ALUMINIUM,7,28,Résidentiel collectif,,Non exposé,Géorisques
2675E1527514Q,2026-06-08,A64RK288ADVA,75115_2466_00031,31 Rue de Cronstadt 75015 Paris,75015,Paris,75,appartement,avant 1948,1920,79.9,D,D,246.6,constructed,2.301678431485059,48.833591424121195,75115,1,adresse_ban,bdnb-bg-HVAC-RWDA-2MSM,23.7,183,51.4,1925,BRIQUES,BETON,8,16,Résidentiel collectif,,Non exposé,Géorisques
2675E1537804K,2026-06-08,8P4D2JPEN1HM,75108_6645_00008,8 Rue Murillo 75008 Paris,75008,Paris,75,appartement,avant 1948,,12.6,C,C,186,constructed,2.308572218751061,48.87805589860727,75108,2,adresse_ban,bdnb-bg-A51R-MCLZ-UEP6,17.4,760,47.0,1860,PIERRE,TUILES,5,11,Résidentiel collectif,,Non exposé,Géorisques
2675E1528199Z,2026-06-08,YK533VSQ8TER,75114_1932_00006_b,6b Rue de Châtillon 75014 Paris,75014,Paris,75,appartement,avant 1948,1850,62,C,A,149,constructed,2.324187161232478,48.82744067421605,75114,1,adresse_ban,bdnb-bg-J21Q-HHWV-AMWV,8.9,69,65.8,1920,BRIQUES - PIERRE,TUILES,2,3,Tertiaire & Autres,,Non exposé,Géorisques
2675E1534791N,2026-06-08,PACEMG7MV9XB,75112_3981_00021,21 Passage Gatbois 75012 Paris,75012,Paris,75,appartement,avant 1948,1876,27.4,F,C,363,constructed,2.379624682671252,48.844807221042586,75112,1,adresse_ban,bdnb-bg-E3KJ-LFBC-XVXN,18.4,167,35.1,1876,BRIQUES - MEULIERE,TUILES,5,19,Résidentiel collectif,,Non exposé,Géorisques
2675E1530040U,2026-06-08,GYYKV531GDJ8,75115_3498_00085_b,85b Rue Falguière 75015 Paris,75015,Paris,75,appartement,1989-2000,,72,C,A,112,constructed,2.31225140879699,48.83948785928641,75115,2,adresse_ban,bdnb-bg-EKW9-UJRD-XXFA,2.8,240,53.0,1991,INDETERMINE,INDETERMINE,11,205,Résidentiel collectif,,Non exposé,Géorisques
2675E1539037V,2026-06-08,AYZW98RGJ35B,75112_5063_00008,8 Rue Jules César 75012 Paris,75012,Paris,75,appartement,1975-1977,,85.4,C,C,138,constructed,2.368992716342783,48.84869664734741,75112,2,adresse_ban,bdnb-bg-Q78J-6337-91FJ,24.0,780,35.0,1976,BETON,AUTRES,9,37,Résidentiel collectif,,Non exposé,Géorisques
2675E1532183F,2026-06-08,5A7QCPDE8KCD,75115_0463_00020,20 Rue de l'Armorique 75015 Paris,75015,Paris,75,appartement,1948-1974,,36,C,C,150,constructed,2.314451450901791,48.838940428397365,75115,3,adresse_ban,bdnb-bg-BE1N-6U4K-TVFM,4.0,78,59.9,1970,INDETERMINE,INDETERMINE,11,84,Résidentiel collectif,,Non exposé,Géorisques
2675E1538642Q,2026-06-08,WFWRKQSK4FEW,75118_1614_00051,51 Rue Caulaincourt 75018 Paris,75018,Paris,75,appartement,avant 1948,,27.3,E,C,354,constructed,2.334421995778968,48.88935927075191,75118,1,adresse_ban,bdnb-bg-WBE5-64QE-KAX1,30.2,225,82.3,1880,PIERRE,ZINC ALUMINIUM,8,18,Résidentiel collectif,,Non exposé,Géorisques
2675E1528185L,2026-06-08,22W5V1QQ8CTM,75103_6817_00010,10 Rue de Normandie 75003 Paris,75003,Paris,75,appartement,avant 1948,,30.4,C,A,176,constructed,2.364164192324693,48.86363402340871,75103,2,adresse_ban,bdnb-bg-JE7T-7MDT-DZJC,14.1,283,37.0,1900,PIERRE,TUILES,4,9,Résidentiel collectif,,Non exposé,Géorisques
2675E1534749X,2026-06-08,8SZ35PFQFY51,75109_6125_00015,15 Rue Marie-Éléonore de Bellefond 75009 Paris,75009,Paris,75,appartement,avant 1948,,38.5,E,E,258,constructed,2.347423220610493,48.877594720081085,75109,1,adresse_ban,bdnb-bg-LQGC-YLKT-MFYE,23.2,380,40.6,2008,BRIQUES - MEULIERE,INDETERMINE,7,64,Résidentiel collectif,,Non exposé,Géorisques
2675E1532820S,2026-06-08,P5MJNA5EGH5N,75116_9706_00146,146 Avenue de Versailles 75016 Paris,75016,Paris,75,appartement,2013-2021,2017,18.5,C,A,187,constructed,2.266073861531958,48.841509397536996,75116,1,adresse_ban,bdnb-bg-DQRN-E1J9-6C7L,11.5,186,34.8,1890,AGGLOMERE,ARDOISES - TUILES,3,3,Résidentiel collectif,,Non exposé,Géorisques
2675E1530136M,2026-06-08,CRR66WANVSX9,75110_6122_00013,13 Rue de Marseille 75010 Paris,75010,Paris,75,appartement,avant 1948,,32.8,E,C,315,constructed,2.363495313245034,48.8717802441179,75110,1,adresse_ban,bdnb-bg-SK5V-ZD6X-9MEE,18.6,350,35.0,1860,BRIQUES,ZINC ALUMINIUM,7,38,Résidentiel collectif,,Non exposé,Géorisques
2675E1538424G,2026-06-08,ABZQMXXEVP8F,75106_8151_00105,105 Rue de Rennes 75006 Paris,75006,Paris,75,appartement,avant 1948,,114.3,D,D,225,constructed,2.328744938807151,48.84872789111394,75106,2,adresse_ban,bdnb-bg-F2X7-3C5H-X2WE,23.2,156,40.0,1880,MEULIERE - PIERRE,ARDOISES - ZINC ALUMINIUM,7,7,Résidentiel collectif,,Non exposé,Géorisques
2675E1539035T,2026-06-08,NP6HDFA4K4YE,75104_8009_00029,29 Rue Rambuteau 75004 Paris,75004,Paris,75,appartement,avant 1948,,41.5,D,B,218,constructed,2.354086486074841,48.860825718614876,75104,2,adresse_ban,bdnb-bg-9AAW-5PEN-PS9Y,17.6,143,36.0,1900,INDETERMINE,INDETERMINE,7,12,Résidentiel collectif,,Non exposé,Géorisques
2675E1527441V,2026-06-08,S7ASM624ZEPA,75116_9957_00018,18 Rue Weber 75016 Paris,75016,Paris,75,appartement,avant 1948,,393.2,C,C,134,constructed,2.281759075040801,48.87529375351667,75116,1,adresse_ban,bdnb-bg-W9AT-8FNH-A8XW,11.3,95,42.9,1905,PIERRE,ARDOISES,4,1,Résidentiel individuel,,Non exposé,Géorisques
2675E1530020A,2026-06-08,5RCYZ68QJZGY,75105_8705_00009,9 Boulevard Saint-Michel 75005 Paris,75005,Paris,75,appartement,avant 1948,,103.7,D,D,181,constructed,2.343856178367224,48.85220205435896,75105,1,adresse_ban,bdnb-bg-XF6D-912M-7UDN,17.4,459,35.9,1858,PIERRE,ZINC ALUMINIUM,7,11,Tertiaire & Autres,,Non exposé,Géorisques
2675E1538849P,2026-06-08,AVYHYBM4GND8,75112_0881_00147,147 Rue de Bercy 75012 Paris,75012,Paris,75,appartement,1948-1974,1971,42.7,D,D,247.2,constructed,2.376211798612874,48.84102113677807,75112,2,adresse_ban,bdnb-bg-PFF9-NBJL-3RF7,33.3,1483,33.0,1971,INDETERMINE,INDETERMINE,16,196,Résidentiel collectif,,Non exposé,Géorisques
2675E1537991P,2026-06-08,23QTY4RTB1E5,75117_5951_00160,160 Boulevard Malesherbes 75017 Paris,75017,Paris,75,appartement,avant 1948,,17.1,G,C,674,constructed,2.306050486390488,48.88677062386806,75117,1,adresse_ban,bdnb-bg-275L-19R1-41AL,4.7,26,43.0,1880,INDETERMINE,ARDOISES - ZINC ALUMINIUM,7,20,Résidentiel collectif,,Non exposé,Géorisques
2675E1525881V,2026-06-08,RJZCYNND8D6Z,75108_4921_00026,26 Rue Jean Mermoz 75008 Paris,75008,Paris,75,appartement,avant 1948,,226.5,E,C,328,constructed,2.312004387217909,48.871244609620405,75108,3,adresse_ban,bdnb-bg-E813-B3WV-M9QY,19.2,335,33.2,1890,MEULIERE - PIERRE,ARDOISES - ZINC ALUMINIUM,7,14,Résidentiel collectif,,Non exposé,Géorisques
2675E1534083H,2026-06-08,97GKXR44D6A4,75120_8022_00021,21 Rue Ramus 75020 Paris,75020,Paris,75,appartement,avant 1948,,86.7,E,E,304,constructed,2.398906088388026,48.86224976455807,75120,1,adresse_ban,bdnb-bg-V8H3-ZTEZ-B3LG,8.7,199,87.8,1870,BRIQUES - AUTRES,INDETERMINE,2,1,Résidentiel individuel,,Non exposé,Géorisques
2675E1529386Q,2026-06-08,TZ55WKS921K9,75114_2794_00095,95 Rue Didot 75014 Paris,75014,Paris,75,appartement,avant 1948,,43,F,F,387,constructed,2.316578923812901,48.82858824089077,75114,3,adresse_ban,bdnb-bg-HS9H-SH3Z-Z8SS,21.9,192,63.2,1885,PIERRE,ARDOISES - ZINC ALUMINIUM,7,19,Résidentiel collectif,,Non exposé,Géorisques
2675E1534514W,2026-06-08,THY21QFJQRQZ,75110_4497_00035,35 Rue d'Hauteville 75010 Paris,75010,Paris,75,appartement,avant 1948,,82.8,D,B,203,constructed,2.349834910896794,48.87358484598417,75110,1,adresse_ban,bdnb-bg-JP9D-BH94-DR4R,16.6,504,34.9,1830,BOIS - PIERRE,INDETERMINE,7,28,Résidentiel collectif,,Non exposé,Géorisques
2675E1533336O,2026-06-08,PAKT31MZAE7B,75110_4497_00043,43 Rue d'Hauteville 75010 Paris,75010,Paris,75,appartement,avant 1948,,31.9,B,A,109,constructed,2.35045554082262,48.87407640613434,75110,1,adresse_ban,bdnb-bg-KANP-VSVL-7BPX,15.7,167,34.8,1875,INDETERMINE,INDETERMINE,6,10,Résidentiel collectif,,Non exposé,Géorisques
2675E1526976Y,2026-06-08,1MBVAR78Y7C8,75109_8299_00016,16 Rue Claude Rodier 75009 Paris,75009,Paris,75,appartement,avant 1948,,36.7,C,A,179,constructed,2.343017352936539,48.87812329971518,75109,2,adresse_ban,bdnb-bg-DCDX-SQ5S-6P1B,17.0,134,47.7,1903,MEULIERE,TUILES - ZINC ALUMINIUM,7,34,Résidentiel collectif,,Non exposé,Géorisques
2675E1538779X,2026-06-08,3NSVKXCYTX85,75102_6513_00055,55 Rue Montmartre 75002 Paris,75002,Paris,75,appartement,avant 1948,,21.9,E,C,363,constructed,2.344055361768195,48.86588180606596,75102,2,adresse_ban,bdnb-bg-C3K6-JKQX-S3W7,19.2,71,34.4,1860,MEULIERE - PIERRE,ZINC ALUMINIUM,8,53,Résidentiel collectif,,Non exposé,Géorisques
2675E1525742M,2026-06-08,AHS5K86HGVGT,75111_6858_00101,101 Rue Oberkampf 75011 Paris,75011,Paris,75,appartement,avant 1948,1830,50.3,D,B,213.2,constructed,2.377094833597541,48.86570051710375,75111,3,adresse_ban,bdnb-bg-MYUJ-VQYH-PGBN,12.6,569,42.9,1830,AUTRES,TUILES - ZINC ALUMINIUM,5,41,Résidentiel collectif,,Non exposé,Géorisques
2675E1533177L,2026-06-08,7VJZEXY6VFC2,75118_2118_00112,112 Rue de Clignancourt 75018 Paris,75018,Paris,75,appartement,1948-1974,,29.1,E,E,264,constructed,2.349667736506532,48.89281505921405,75118,3,adresse_ban,bdnb-bg-SG4F-WV53-PZXD,22.9,956,52.2,1965,BETON - BRIQUES,BETON,9,128,Résidentiel collectif,,Non exposé,Géorisques
2675E1529360Q,2026-06-08,XRTRXR12VGQW,75118_5188_00050,50 Rue Labat 75018 Paris,75018,Paris,75,appartement,avant 1948,,23.3,E,C,309,constructed,2.347262267213603,48.889162188324704,75118,1,adresse_ban,bdnb-bg-JYMK-WH6C-7333,27.2,173,67.7,1885,PIERRE - AUTRES,TUILES,5,13,Résidentiel collectif,,Non exposé,Géorisques
2675E1538735F,2026-06-08,7SFKXJWFSJ4P,75114_4063_00064,64 Avenue du Général Leclerc 75014 Paris,75014,Paris,75,maison,avant 1948,1900,99.5,E,E,329,constructed,2.328193738893155,48.829819439925316,75114,1,adresse_ban,bdnb-bg-TDA7-DTRV-WU7G,16.9,192,64.6,1860,INDETERMINE,INDETERMINE,5,9,Résidentiel collectif,,Non exposé,Géorisques
2675E1535556Y,2026-06-08,5838ZPNM7EX1,75117_2728_00002_b,2b Rue Descombes 75017 Paris,75017,Paris,75,appartement,avant 1948,,55.9,D,D,221,constructed,2.293552602655264,48.8842615338084,75117,1,adresse_ban,bdnb-bg-SVKG-4BG9-BTWT,21.0,160,35.0,1914,INDETERMINE,ARDOISES - ZINC ALUMINIUM,7,13,Résidentiel collectif,,Non exposé,Géorisques
2675E1538055B,2026-06-08,1CV3VH17W78E,75111_8901_00041,41 Rue Sedaine 75011 Paris,75011,Paris,75,appartement,avant 1948,,46.1,F,C,398,constructed,2.3743541640936,48.85720118186639,75111,1,adresse_ban,bdnb-bg-YAFK-NWTX-AADG,18.6,767,32.4,1900,MEULIERE - PIERRE,ZINC ALUMINIUM,7,46,Résidentiel collectif,,Non exposé,Géorisques
2675E1538269H,2026-06-08,5FYJXVWX9NKW,75114_6090_00008,8 Rue des Mariniers 75014 Paris,75014,Paris,75,appartement,1948-1974,,48.1,D,C,183,constructed,2.311579821363055,48.82696246502587,75114,2,adresse_ban,bdnb-bg-SE7M-TJKZ-4NUF,39.4,655,64.2,1970,BETON,BETON,14,128,Résidentiel collectif,,Non exposé,Géorisques
2675E1534202W,2026-06-08,BSEGHF1WT5G1,75117_8847_00045,45 Rue de Saussure 75017 Paris,75017,Paris,75,immeuble,avant 1948,1945,,E,D,262.4,constructed,2.315068960380312,48.885112766110986,75117,1,adresse_ban,bdnb-bg-BNSZ-SRJN-P5PH,17.3,254,45.6,1927,MEULIERE,ARDOISES,6,21,Résidentiel collectif,,Non exposé,Géorisques
2675E1537758Q,2026-06-08,V9RV5TV149SG,75119_0073_00010,10 Villa de l'Adour 75019 Paris,75019,Paris,75,appartement,avant 1948,,28.1,G,C,531,constructed,2.386645643139579,48.875538862988414,75119,1,adresse_ban,bdnb-bg-5BNN-1744-M853,12.4,44,97.0,1900,MEULIERE,ZINC ALUMINIUM,4,5,Résidentiel collectif,,Non exposé,Géorisques
2675E1533057V,2026-06-08,1S35YV8ACWB4,75111_9190_00034,34 Boulevard du Temple 75011 Paris,75011,Paris,75,appartement,avant 1948,,41.3,F,C,343,constructed,2.36586912718617,48.865297502401205,75111,2,adresse_ban,bdnb-bg-MQ85-L58P-PZQ8,17.8,410,36.0,1838,BOIS - MEULIERE,TUILES,8,25,Résidentiel collectif,,Non exposé,Géorisques
2675E1534465Z,2026-06-08,27CW4SEBXTGF,75106_6444_00008,8 Rue Monsieur Le Prince 75006 Paris,75006,Paris,75,appartement,avant 1948,1789,23.4,D,B,219,constructed,2.339238270117904,48.85116369743673,75106,1,adresse_ban,bdnb-bg-B4SE-YBY7-D4H8,15.8,208,41.1,1880,PIERRE,ARDOISES - ZINC ALUMINIUM,6,13,Résidentiel collectif,,Non exposé,Géorisques
2675E1529103T,2026-06-08,DADYJS6JJPPP,75105_3998_00039,39 Rue Gay-Lussac 75005 Paris,75005,Paris,75,appartement,avant 1948,,39.9,C,C,125,constructed,2.343346651468875,48.84347148564767,75105,1,adresse_ban,bdnb-bg-XAMU-5MDA-2RVU,9.4,59,53.9,,INDETERMINE,INDETERMINE,5,15,Tertiaire & Autres,,Non exposé,Géorisques
2675E1527690K,2026-06-08,AWNKNJW8GD7B,75117_5329_00016,16 Rue Lantiez 75017 Paris,75017,Paris,75,appartement,avant 1948,1920,37,E,C,324,constructed,2.323529322321791,48.89434740228076,75117,1,adresse_ban,bdnb-bg-VZYH-EFV4-5TXW,21.9,193,39.7,1890,AUTRES,ARDOISES - ZINC ALUMINIUM,7,30,Résidentiel collectif,,Non exposé,Géorisques
2675E1531217B,2026-06-08,5CQ38R84CWKG,75116_9761_00161,161 Avenue Victor Hugo 75016 Paris,75016,Paris,75,appartement,avant 1948,1851,83.7,E,E,282.3,constructed,2.278349047073353,48.86646504352971,75116,2,adresse_ban,bdnb-bg-P4MH-G6KZ-RR3T,24.3,494,55.1,1920,BRIQUES - PIERRE,ARDOISES - ZINC ALUMINIUM,7,14,Résidentiel collectif,,Non exposé,Géorisques
2675E1537674K,2026-06-08,KKW6K79DPGER,75117_5228_00022,22 Rue la Condamine 75017 Paris,75017,Paris,75,appartement,avant 1948,,43.3,E,B,264,constructed,2.323243921783804,48.88749218139398,75117,2,adresse_ban,bdnb-bg-4PLM-FEML-298S,19.9,535,58.0,1901,PIERRE,ARDOISES - ZINC ALUMINIUM,7,36,Résidentiel collectif,,Non exposé,Géorisques
2675E1536152W,2026-06-08,BTDZM8R6RMHK,75112_2618_00008,8 Cité Debergue 75012 Paris,75012,Paris,75,appartement,avant 1948,,32.4,C,B,185,constructed,2.404588563494405,48.845945251847766,75112,1,adresse_ban,bdnb-bg-FJE5-HBG1-RB1U,4.9,97,48.0,1845,PIERRE,TUILES,3,9,Résidentiel collectif,,Non exposé,Géorisques
2675E1533174I,2026-06-08,PAKT31MZAE7B,75110_4497_00043,43 Rue d'Hauteville 75010 Paris,75010,Paris,75,appartement,avant 1948,,31.7,C,A,116,constructed,2.35045554082262,48.87407640613434,75110,1,adresse_ban,bdnb-bg-KANP-VSVL-7BPX,15.7,167,34.8,1875,INDETERMINE,INDETERMINE,6,10,Résidentiel collectif,,Non exposé,Géorisques
2675E1536713L,2026-06-08,29T123T3CQRT,75119_4481_00001,1 Rue Hassard 75019 Paris,75019,Paris,75,appartement,1989-2000,1990,75.9,D,B,198,constructed,2.383580266481825,48.87830306156404,75119,5,adresse_ban,bdnb-bg-J3CK-XVF6-YR4J,34.1,1041,99.0,1976,BETON,BETON,12,179,Résidentiel collectif,,Non exposé,Géorisques
2675E1526096C,2026-06-08,8TWX33RBVFAZ,75105_6432_00012,12 Rue Monge 75005 Paris,75005,Paris,75,appartement,avant 1948,,26.9,F,C,384,constructed,2.348988539553008,48.84887636576087,75105,1,adresse_ban,bdnb-bg-88PF-F6NG-6RQ8,19.8,102,37.7,1850,BRIQUES - PIERRE,ARDOISES - ZINC ALUMINIUM,8,75,Résidentiel collectif,,Non exposé,Géorisques
2675E1537895X,2026-06-08,8P4D2JPEN1HM,75108_6645_00008,8 Rue Murillo 75008 Paris,75008,Paris,75,appartement,avant 1948,,18,C,C,146,constructed,2.308572218751061,48.87805589860727,75108,2,adresse_ban,bdnb-bg-A51R-MCLZ-UEP6,17.4,760,47.0,1860,PIERRE,TUILES,5,11,Résidentiel collectif,,Non exposé,Géorisques
2675E1528347R,2026-06-08,1B97KFVDQ3GH,75118_5263_00001,1 Rue Lagille 75018 Paris,75018,Paris,75,immeuble,avant 1948,,,G,F,565,constructed,2.328323274749957,48.89494913373559,75118,2,adresse_ban,bdnb-bg-HXRY-RBDK-716H,15.0,120,48.0,1890,BRIQUES,ZINC ALUMINIUM,7,12,Résidentiel collectif,,Non exposé,Géorisques
2675E1538141J,2026-06-08,4YZDS97R8Z26,75115_5814_00021,21 Rue de Lourmel 75015 Paris,75015,Paris,75,appartement,1948-1974,,49,E,D,269,constructed,2.291520277307328,48.84930511342908,75115,2,adresse_ban,bdnb-bg-BYGL-XCM6-42FY,23.8,506,34.0,1974,INDETERMINE,INDETERMINE,11,136,Résidentiel collectif,,Non exposé,Géorisques
2675E1537456A,2026-06-08,FXXAJEYDTGNF,75116_7063_00022,22 Rue Parent de Rosan 75016 Paris,75016,Paris,75,appartement,1948-1974,,49.9,E,E,288,constructed,2.260016195211643,48.84044654472904,75116,3,adresse_ban,bdnb-bg-3PPJ-JRCJ-JQAK,22.9,213,37.1,1954,PIERRE,AUTRES,7,13,Résidentiel collectif,,Non exposé,Géorisques
2675E1531909R,2026-06-08,MMHZN7Q1JVRK,75114_4002_00037,37 Rue Gazan 75014 Paris,75014,Paris,75,appartement,1948-1974,1955,51.3,D,D,241,constructed,2.34094457970557,48.822242928324755,75114,4,adresse_ban,bdnb-bg-5HUG-JXB6-EBE1,33.6,775,54.8,1955,BETON - BRIQUES,BETON,11,86,Résidentiel collectif,,Non exposé,Géorisques
2675E1527569T,2026-06-08,FN6TZG566JAZ,75115_9902_00032,32 Rue des Volontaires 75015 Paris,75015,Paris,75,appartement,1948-1974,,93,D,D,224,constructed,2.308111568041086,48.84093851097113,75115,2,adresse_ban,bdnb-bg-LXTE-BRHG-BP83,13.9,605,47.3,1963,BETON - BRIQUES,BETON,8,41,Résidentiel collectif,,Non exposé,Géorisques
2675E1529026U,2026-06-08,VGKTM4V64SNJ,75114_0143_00177,177 Rue d'Alésia 75014 Paris,75014,Paris,75,appartement,avant 1948,,49.4,D,B,241,constructed,2.317410594100507,48.83084887466251,75114,1,adresse_ban,bdnb-bg-AD6L-MZ4X-MLWR,20.2,298,60.9,1899,MEULIERE - PIERRE,ZINC ALUMINIUM,7,25,Résidentiel collectif,,Non exposé,Géorisques
2675E1530976U,2026-06-08,J5GR5HVJKZWM,75109_0646_00036,36 Rue Ballu 75009 Paris,75009,Paris,75,appartement,avant 1948,1860,42.2,E,E,244,constructed,2.328926379650238,48.88240210166921,75109,3,adresse_ban,bdnb-bg-JXD4-XHFJ-AS25,18.1,543,55.9,1860,MEULIERE - PIERRE,ARDOISES - ZINC ALUMINIUM,7,13,Résidentiel collectif,,Non exposé,Géorisques
2675E1535010Y,2026-06-08,CZC1HAEFD44H,75117_8149_00052,52 Rue Rennequin 75017 Paris,75017,Paris,75,appartement,avant 1948,1900,157,D,D,212,constructed,2.295971649171054,48.88339504973845,75117,1,adresse_ban,bdnb-bg-LCPE-6AYG-Z9L2,22.1,207,36.2,1910,MEULIERE - PIERRE,ARDOISES - ZINC ALUMINIUM,7,7,Résidentiel collectif,,Non exposé,Géorisques
2675E1529783X,2026-06-08,R7EQTZ4VTYW7,75118_3029_00020,20 Rue Durantin 75018 Paris,75018,Paris,75,appartement,avant 1948,,21.4,E,C,357,constructed,2.336924323304225,48.88627767302817,75118,1,adresse_ban,bdnb-bg-KBRG-QF6K-ZKDA,19.1,26,88.7,1880,BRIQUES,ZINC ALUMINIUM,6,15,Résidentiel collectif,,Non exposé,Géorisques
2675E1532396K,2026-06-08,W3739M3A48VR,75108_9470_00023,23 Rue Tronchet 75008 Paris,75008,Paris,75,appartement,1989-2000,1993,121.7,C,B,158.4,constructed,2.325946260161674,48.872477565811835,75108,1,adresse_ban,bdnb-bg-N7Y2-VVBB-J8A3,21.5,240,31.3,1850,BOIS - MEULIERE,ZINC ALUMINIUM,8,12,Résidentiel collectif,,Non exposé,Géorisques
2675E1526473P,2026-06-08,KHGWRKE98TH6,75114_4458_00084,84 Rue Hallé 75014 Paris,75014,Paris,75,appartement,avant 1948,,31.9,D,C,218,constructed,2.331096817632575,48.82859123347822,75114,1,adresse_ban,bdnb-bg-L83S-KP31-HZ6F,20.4,128,62.5,1915,BRIQUES,ARDOISES,7,20,Résidentiel collectif,,Non exposé,Géorisques
2675E1525858Y,2026-06-08,B9W4VGCP8TED,75105_6581_00083,83 Rue Mouffetard 75005 Paris,75005,Paris,75,appartement,avant 1948,,37.8,F,C,335,constructed,2.349844052123782,48.84189996072233,75105,1,adresse_ban,bdnb-bg-CWGD-D15Y-YZLQ,17.2,121,46.2,1800,AGGLOMERE,ZINC ALUMINIUM,6,13,Résidentiel collectif,,Non exposé,Géorisques
2675E1536832A,2026-06-08,2616KR4GEFQX,75114_7546_00010,10 Rue Poinsot 75014 Paris,75014,Paris,75,appartement,1983-1988,1983,71,C,C,136,constructed,2.322714308841715,48.84088269666066,75114,1,adresse_ban,bdnb-bg-YWVB-VG9T-ZP3A,6.5,683,55.0,1868,INDETERMINE,INDETERMINE,6,25,Résidentiel collectif,,Non exposé,Géorisques
2675E1534146S,2026-06-08,4WHNTAY2N8QC,75118_7755_00011,11 Rue du Poteau 75018 Paris,75018,Paris,75,appartement,avant 1948,,86,F,F,347,constructed,2.342790548191402,48.8930944061044,75118,1,adresse_ban,bdnb-bg-GLUH-XB41-7J9P,19.8,198,58.0,1880,MEULIERE - PIERRE,ARDOISES - ZINC ALUMINIUM,7,12,Résidentiel collectif,,Non exposé,Géorisques
2675E1532548G,2026-06-08,WYYGRFRK9A3C,75119_1576_00010,10 Rue des Carrières d'Amérique 75019 Paris,75019,Paris,75,appartement,avant 1948,,28.4,E,C,340,constructed,2.393071639242851,48.88463500362096,75119,2,adresse_ban,bdnb-bg-L4B8-C2KW-SFBN,2.2,112,66.5,1880,BRIQUES,TUILES,2,6,Résidentiel collectif,,Non exposé,Géorisques
2675E1534257Z,2026-06-08,YBW7W6XQ7VCP,75115_2300_00016,16 Rue de la Convention 75015 Paris,75015,Paris,75,appartement,1989-2000,,63.7,D,D,210,constructed,2.278884450649856,48.84503110287038,75115,4,adresse_ban,bdnb-bg-QSM7-3J8L-BPVY,27.2,962,31.4,1963,BETON - BRIQUES,AUTRES,10,71,Résidentiel collectif,,Non exposé,Géorisques
2675E1534704E,2026-06-08,HNSBDZPGES6E,75116_5776_00012,12 Rue Louis David 75016 Paris,75016,Paris,75,appartement,avant 1948,1830,23.9,E,B,307.7,constructed,2.280894237994566,48.86161314342008,75116,1,adresse_ban,bdnb-bg-W9VN-4LL1-RYQ9,15.3,129,65.5,1830,BRIQUES - MEULIERE,ARDOISES - TUILES,6,18,Résidentiel collectif,,Non exposé,Géorisques
2675E1535493N,2026-06-08,3ZCKEJYYE4BS,75111_6989_00012,12 Rue Pache 75011 Paris,75011,Paris,75,appartement,avant 1948,,40,E,E,293,constructed,2.38269359888023,48.858820167971416,75111,1,adresse_ban,bdnb-bg-EGYL-2VFF-QEEU,19.4,215,42.7,1880,BRIQUES - PIERRE,ZINC ALUMINIUM,7,30,Résidentiel collectif,,Non exposé,Géorisques
2675E1537836Q,2026-06-08,7MSW7D6KRM8D,75116_9860_00047,47 Rue Vineuse 75016 Paris,75016,Paris,75,appartement,1948-1974,,40,E,E,304,constructed,2.285797792714839,48.8612925919894,75116,2,adresse_ban,bdnb-bg-PJCY-WGZS-QSFA,18.8,401,63.0,,INDETERMINE,INDETERMINE,9,56,Résidentiel collectif,,Non exposé,Géorisques
2675E1537688Y,2026-06-08,PDP6ZQNMZ11Q,75114_8571_00001,1 Rue Sainte-Léonie 75014 Paris,75014,Paris,75,appartement,avant 1948,,26.4,F,C,430,constructed,2.319352786100806,48.83335387753611,75114,2,adresse_ban,bdnb-bg-3E8V-35KA-7NCJ,20.0,142,63.5,1860,BRIQUES - MEULIERE,ZINC ALUMINIUM,6,18,Résidentiel collectif,,Non exposé,Géorisques
2675E1526883J,2026-06-08,A86QEHS2FD5F,75117_1959_00032,32 Rue de Chazelles 75017 Paris,75017,Paris,75,appartement,avant 1948,,78,D,D,245,constructed,2.306719940754717,48.880825411855355,75117,1,adresse_ban,bdnb-bg-GE9W-4ALY-ZAR3,21.4,431,42.9,1895,MEULIERE - PIERRE,ARDOISES - ZINC ALUMINIUM,7,28,Résidentiel collectif,,Non exposé,Géorisques
2675E1538384S,2026-06-08,DMB4H5S778NF,75102_8609_00003,3 Rue Saint-Fiacre 75002 Paris,75002,Paris,75,appartement,avant 1948,,44.3,D,B,194,constructed,2.34512888366791,48.86975502741502,75102,1,adresse_ban,bdnb-bg-LVNL-V644-QN87,14.5,294,37.0,1850,PIERRE - AUTRES,ZINC ALUMINIUM,8,16,Tertiaire & Autres,,Non exposé,Géorisques
2675E1529217D,2026-06-08,VYQ7MF1B6TFZ,75110_3086_00016,16 Rue des Ecluses Saint-Martin 75010 Paris,75010,Paris,75,appartement,1978-1982,1981,46.6,C,C,84,constructed,2.366678717608229,48.87709564156788,75110,9,adresse_ban,bdnb-bg-3NJT-9L9C-Z3T5,28.5,1969,46.3,1981,INDETERMINE,INDETERMINE,9,191,Résidentiel collectif,,Non exposé,Géorisques
2675E1531762A,2026-06-08,2VNZPEMGEA46,75115_5319_00008,8 Rue de Langeac 75015 Paris,75015,Paris,75,appartement,avant 1948,,32.5,E,C,325,constructed,2.29190019044146,48.83573261198151,75115,1,adresse_ban,bdnb-bg-4A6F-88MF-BDA5,21.8,198,37.3,1911,MEULIERE - PIERRE,ARDOISES - ZINC ALUMINIUM,7,27,Résidentiel collectif,,Non exposé,Géorisques
2675E1526661V,2026-06-08,MCKGG7SZ3NAS,75119_8896_00082,82 Avenue Secrétan 75019 Paris,75019,Paris,75,appartement,avant 1948,,51.1,E,B,259,constructed,2.377674405263124,48.87910123606649,75119,1,adresse_ban,bdnb-bg-FB13-HUHT-PMQM,16.8,269,73.4,1830,PIERRE,ARDOISES - ZINC ALUMINIUM,7,29,Résidentiel collectif,,Non exposé,Géorisques
2675E1538282U,2026-06-08,XME89AFGBTP1,75103_6336_00027,27 Rue Michel Le Comte 75003 Paris,75003,Paris,75,appartement,avant 1948,1900,50.3,E,E,271.6,constructed,2.35460109307803,48.862303758671885,75103,1,adresse_ban,bdnb-bg-W3C8-VAT6-8RYA,14.5,547,36.0,1900,INDETERMINE,INDETERMINE,6,18,Tertiaire & Autres,,Non exposé,Géorisques
2675E1534813J,2026-06-08,M5DX46HZYTGK,75117_8339_00097,97 Rue de Rome 75017 Paris,75017,Paris,75,appartement,avant 1948,1928,84,D,D,243,constructed,2.318726807358024,48.88355845455256,75117,1,adresse_ban,bdnb-bg-SUU7-8VH9-WY4A,20.4,548,50.3,1925,PIERRE,ARDOISES - ZINC ALUMINIUM,9,72,Résidentiel collectif,,Non exposé,Géorisques
2675E1538855V,2026-06-08,C21SMFVWFFYS,75120_3913_00008,8 Villa Gagliardini 75020 Paris,75020,Paris,75,appartement,avant 1948,,35.8,E,D,298,constructed,2.40331744382671,48.87539993013431,75120,6,adresse_ban,bdnb-bg-XCB9-X9NS-74VH,24.5,990,118.0,1935,BETON - BRIQUES,INDETERMINE,9,535,Résidentiel collectif,,Non exposé,Géorisques
2675E1526091X,2026-06-08,16SC9AWWPA18,75117_4440_00046,46 Rue Guy Môquet 75017 Paris,75017,Paris,75,appartement,avant 1948,,37.7,E,C,315,constructed,2.324376317342183,48.89219539718873,75117,1,adresse_ban,bdnb-bg-LN6E-FXHZ-WHCY,18.3,181,45.3,1890,INDETERMINE,INDETERMINE,8,22,Résidentiel collectif,,Non exposé,Géorisques
2675E1533061Z,2026-06-08,G377A2P6DR6E,75118_6036_00010,10 Rue Marc Séguin 75018 Paris,75018,Paris,75,appartement,1948-1974,1948,20,E,B,302,constructed,2.363707948302587,48.89217681367819,75118,1,adresse_ban,bdnb-bg-WR2K-53ZL-2C4S,10.9,332,49.0,1880,BRIQUES - MEULIERE,TUILES,6,41,Résidentiel collectif,,Non exposé,Géorisques
2675E1533289T,2026-06-08,PN5PEQHGQEZR,75116_9761_00081,81 Avenue Victor Hugo 75016 Paris,75016,Paris,75,appartement,avant 1948,,180,C,C,112,constructed,2.287013443401497,48.870101569621724,75116,1,adresse_ban,bdnb-bg-7VCT-PH7F-CP7C,21.4,910,61.9,1898,INDETERMINE,ARDOISES - ZINC ALUMINIUM,7,31,Résidentiel collectif,,Non exposé,Géorisques
2675E1534018U,2026-06-08,PB2TPJQJWQ38,75115_2976_00005,5 Rue Dulac 75015 Paris,75015,Paris,75,appartement,avant 1948,,16.2,E,C,369,constructed,2.3155449312059,48.84343878298772,75115,1,adresse_ban,bdnb-bg-2BY4-YGDM-HH7A,20.0,123,44.6,1850,MEULIERE,ZINC ALUMINIUM,5,9,Résidentiel collectif,,Non exposé,Géorisques
2675E1535803L,2026-06-08,662HYJ24G1N7,75110_3522_00066,66 Rue du Faubourg Saint-Martin 75010 Paris,75010,Paris,75,appartement,avant 1948,,35.2,E,C,330,constructed,2.357558319998133,48.8712911335071,75110,2,adresse_ban,bdnb-bg-XK6G-LQSF-JJBS,15.0,596,35.0,1820,AUTRES,TUILES - ZINC ALUMINIUM,6,31,Résidentiel collectif,,Non exposé,Géorisques
2675E1528632Q,2026-06-08,1YM6TXH4YPSV,75118_4248_00036,36 Rue de la Goutte d'Or 75018 Paris,75018,Paris,75,appartement,avant 1948,,19,E,C,353,constructed,2.351726517685908,48.88529780576856,75118,2,adresse_ban,bdnb-bg-KPN7-XGX3-XJAJ,15.8,666,67.5,1891,MEULIERE - PIERRE,ZINC ALUMINIUM,7,44,Résidentiel collectif,,Non exposé,Géorisques
2675E1527934U,2026-06-08,VK1V7MDRFYW8,75116_6771_00033,33 Rue Nicolo 75016 Paris,75016,Paris,75,appartement,1948-1974,1963,59.6,D,D,210,constructed,2.278963483225938,48.85930384527407,75116,10,adresse_ban,bdnb-bg-DR34-HSNT-7YQC,19.7,1082,59.0,1963,BETON,BETON,8,47,Résidentiel collectif,,Non exposé,Géorisques
2675E1534397J,2026-06-08,PZWZCKBA7V5E,75118_5630_00034,34 Rue Letort 75018 Paris,75018,Paris,75,appartement,avant 1948,,26.1,E,B,293,constructed,2.343499828224647,48.895553168288444,75118,1,adresse_ban,bdnb-bg-U6MR-XQJE-WDX3,17.5,114,53.3,1900,BETON - MEULIERE,ARDOISES - ZINC ALUMINIUM,6,22,Résidentiel collectif,,Non exposé,Géorisques
2675E1529968A,2026-06-08,KQ6YEWG9CQ8W,75117_5538_00005,5 Rue Léon Cogniet 75017 Paris,75017,Paris,75,appartement,avant 1948,,61.8,F,F,351,constructed,2.302809203019232,48.88088822000503,75117,1,adresse_ban,bdnb-bg-CQJF-S16L-T9X5,16.3,539,40.7,1900,BRIQUES - PIERRE,ARDOISES,8,28,Résidentiel collectif,,Non exposé,Géorisques
2675E1527762E,2026-06-08,EDKVTYJZNTHF,75105_3998_00030,30 Rue Gay-Lussac 75005 Paris,75005,Paris,75,appartement,avant 1948,,67.5,D,D,224,constructed,2.341664943794307,48.84458626759516,75105,1,adresse_ban,bdnb-bg-71WM-YC2L-EAJR,21.2,330,55.9,1880,MEULIERE - PIERRE,ARDOISES,7,20,Résidentiel collectif,,Non exposé,Géorisques
2675E1532969L,2026-06-08,5GGK8747BP6C,75112_8175_00069,69 Rue de Reuilly 75012 Paris,75012,Paris,75,appartement,avant 1948,,42.8,D,D,180,constructed,2.38909192522753,48.8453976275148,75112,4,adresse_ban,bdnb-bg-8R96-525F-7JVF,17.3,236,44.7,1880,BOIS - PIERRE,ZINC ALUMINIUM,7,128,Résidentiel collectif,,Non exposé,Géorisques
2675E1527911X,2026-06-08,P6NC57V56BV1,75101_5825_00015,15 Rue du Louvre 75001 Paris,75001,Paris,75,appartement,avant 1948,,80.9,E,B,253,constructed,2.341164170133262,48.863648410179934,75101,4,adresse_ban,bdnb-bg-ABR8-8LM1-9KZV,23.1,1190,35.7,1889,PIERRE,ARDOISES - ZINC ALUMINIUM,7,69,Tertiaire & Autres,,Non exposé,Géorisques
2675E1530158I,2026-06-08,BXXJTFV4A31D,75112_9153_00028,28 Rue Taine 75012 Paris,75012,Paris,75,appartement,avant 1948,1925,21.1,D,D,292,constructed,2.393669633216461,48.83869623165388,75112,1,adresse_ban,bdnb-bg-RU27-8WUY-GGYP,22.8,273,47.9,,INDETERMINE,INDETERMINE,9,131,Résidentiel collectif,,Non exposé,Géorisques
2675E1527809Z,2026-06-08,3TB9Y43B5TQJ,75108_4485_00176,176 Boulevard Haussmann 75008 Paris,75008,Paris,75,appartement,avant 1948,,156.5,E,E,266,constructed,2.307582145692326,48.87535824177989,75108,1,adresse_ban,bdnb-bg-CSZ4-NLQ1-QP73,23.8,361,39.1,1800,INDETERMINE,ARDOISES - ZINC ALUMINIUM,7,20,Résidentiel collectif,,Non exposé,Géorisques
2675E1529272G,2026-06-08,6WREZXVBKB13,75105_3053_00022,22 Rue du Sommerard 75005 Paris,75005,Paris,75,appartement,avant 1948,,52,D,C,183,constructed,2.344796918929132,48.85036459492278,75105,1,adresse_ban,bdnb-bg-8R3M-2JT7-TQYJ,18.5,179,39.1,1971,INDETERMINE,INDETERMINE,7,20,Résidentiel collectif,,Non exposé,Géorisques
2675E1538580G,2026-06-08,2P7F5W2DRX7S,75117_2582_00024,24 Rue Daubigny 75017 Paris,75017,Paris,75,appartement,avant 1948,1910,112.4,E,E,248.9,constructed,2.307945364156767,48.885776604937334,75117,1,adresse_ban,bdnb-bg-N743-5J6H-5ANL,21.0,179,42.7,1910,INDETERMINE,ARDOISES - ZINC ALUMINIUM,7,8,Résidentiel collectif,,Non exposé,Géorisques
2675E1526438G,2026-06-08,6ZXVYGRP313K,75115_8264_00033,33 Rue Robert Lindet 75015 Paris,75015,Paris,75,appartement,avant 1948,1930,19,E,D,386,constructed,2.297499418110684,48.83285154957839,75115,1,adresse_ban,bdnb-bg-29KJ-A6N5-P789,4.2,32,54.2,1900,BETON - PIERRE,BETON - TUILES,7,61,Résidentiel collectif,,Non exposé,Géorisques
2675E1527623V,2026-06-08,TRE4K6G98HQ2,75118_2118_00121,121 Rue de Clignancourt 75018 Paris,75018,Paris,75,appartement,avant 1948,,51.2,D,D,190,constructed,2.348884404187164,48.89324654633687,75118,1,adresse_ban,bdnb-bg-FETW-432F-DSQF,20.0,150,52.7,1895,BRIQUES - PIERRE,INDETERMINE,7,13,Résidentiel collectif,,Non exposé,Géorisques
2675E1535970W,2026-06-08,W3HNY4G91KGC,75114_1471_00014,14 Rue Campagne Première 75014 Paris,75014,Paris,75,appartement,avant 1948,1930,67.8,E,E,280,constructed,2.331486597064908,48.83991214485098,75114,2,adresse_ban,bdnb-bg-LEN7-4WXG-RS4J,17.4,1854,53.5,,,,,,,,Non exposé,Géorisques
2675E1533653T,2026-06-08,SYGH45EXKN7Q,75119_r034_00001,1 Square du Diapason 75019 Paris,75019,Paris,75,appartement,1989-2000,1990,51,C,A,139,constructed,2.389250055090414,48.88877172431816,75119,4,adresse_ban,bdnb-bg-HRAS-WD3F-8QLG,10.9,453,53.4,1991,INDETERMINE,INDETERMINE,8,188,Résidentiel collectif,,Non exposé,Géorisques
2675E1529270E,2026-06-08,DADYJS6JJPPP,75105_3998_00039,39 Rue Gay-Lussac 75005 Paris,75005,Paris,75,appartement,avant 1948,,39.6,C,C,127,constructed,2.343346651468875,48.84347148564767,75105,1,adresse_ban,bdnb-bg-XAMU-5MDA-2RVU,9.4,59,53.9,,INDETERMINE,INDETERMINE,5,15,Tertiaire & Autres,,Non exposé,Géorisques
2675E1528896U,2026-06-08,DNJA2QP1EWDF,75116_3465_00065,65 Boulevard Exelmans 75016 Paris,75016,Paris,75,appartement,1975-1977,,48.2,D,B,245,constructed,2.260252443807619,48.8423195560229,75116,1,adresse_ban,bdnb-bg-NGY3-VUW8-VRQA,10.3,319,38.0,1977,PIERRE,BETON,11,107,Résidentiel collectif,,Non exposé,Géorisques
2675E1530217P,2026-06-08,Z2QDC721AZ49,75120_7904_00228,228 Rue des Pyrénées 75020 Paris,75020,Paris,75,appartement,2013-2021,2013,24.3,C,C,124,constructed,2.39720790140306,48.86704799018371,75120,1,adresse_ban,bdnb-bg-U5P9-P3AW-W8P2,10.0,436,93.5,2014,INDETERMINE,INDETERMINE,6,10,Résidentiel collectif,,Non exposé,Géorisques
2675E1537694E,2026-06-08,7ZB734VQYH4A,75103_0465_00013,13 Rue des Arquebusiers 75003 Paris,75003,Paris,75,appartement,avant 1948,,26.7,F,C,425,constructed,2.366175529430218,48.8596015632337,75103,1,adresse_ban,bdnb-bg-UZ8W-9FPG-K654,8.5,497,35.0,1880,INDETERMINE,INDETERMINE,7,53,Tertiaire & Autres,,Non exposé,Géorisques
2675E1531481F,2026-06-08,JEZJCFFBMWGT,75120_2010_00018,18 Rue de la Chine 75020 Paris,75020,Paris,75,appartement,avant 1948,,35,D,B,245,constructed,2.398809438614012,48.86769494224858,75120,1,adresse_ban,bdnb-bg-MPG4-WYCA-P3CR,21.3,155,97.9,1907,INDETERMINE,ARDOISES - ZINC ALUMINIUM,7,23,Résidentiel collectif,,Non exposé,Géorisques
2675E1535892W,2026-06-08,JQDW14Z4XD37,75111_1887_00003,3 Boulevard de Charonne 75011 Paris,75011,Paris,75,appartement,avant 1948,1906,72.4,C,A,128,constructed,2.398351109856185,48.848823543630104,75111,1,adresse_ban,bdnb-bg-W549-BX5P-L4D9,24.3,326,53.2,1906,BRIQUES - PIERRE,INDETERMINE,8,31,Résidentiel collectif,,Non exposé,Géorisques
2675E1529472Y,2026-06-08,BV976CYHD6VT,75112_1809_00001,1 Rue Charles Bossut 75012 Paris,75012,Paris,75,appartement,avant 1948,,20.4,E,C,376,constructed,2.383207576644781,48.84308283973257,75112,2,adresse_ban,bdnb-bg-F1E9-44EC-JTBT,18.3,184,37.0,1860,MEULIERE,ZINC ALUMINIUM,6,22,Résidentiel collectif,,Non exposé,Géorisques
2675E1535479Z,2026-06-08,GVMYTHGY6KZE,75105_2580_00007,7 Rue Daubenton 75005 Paris,75005,Paris,75,appartement,avant 1948,,26.5,F,E,391,constructed,2.354950008670393,48.84130871379773,75105,4,adresse_ban,bdnb-bg-H879-ZP72-6FU1,22.8,354,37.4,1928,BRIQUES,ZINC ALUMINIUM,8,44,Résidentiel collectif,,Non exposé,Géorisques
2675E1537305F,2026-06-08,JPYTSPMZBDBM,75120_9085_00046,46 Rue Stendhal 75020 Paris,75020,Paris,75,appartement,avant 1948,1930,19,F,F,451.6,constructed,2.401082818508729,48.862416039463,75120,2,adresse_ban,bdnb-bg-CT1Y-6E7U-BC1J,19.2,200,83.0,1932,AGGLOMERE - MEULIERE,BETON,7,20,Résidentiel collectif,,Non exposé,Géorisques
2675E1532670Y,2026-06-08,7Y18DZAMMMNR,75105_9041_00015,15 Rue Soufflot 75005 Paris,75005,Paris,75,appartement,avant 1948,,118.1,C,B,155,constructed,2.342040806619179,48.84679273809808,75105,4,adresse_ban,bdnb-bg-MN1Q-9VUQ-7GME,27.5,1204,51.3,1878,INDETERMINE,INDETERMINE,7,17,Tertiaire & Autres,,Non exposé,Géorisques
2675E1537021H,2026-06-08,Y3BFRN4FKG55,75117_7258_00101,101 Boulevard Pereire 75017 Paris,75017,Paris,75,appartement,1948-1974,,90,F,C,354,constructed,2.300092303912499,48.88595741378967,75117,2,adresse_ban,bdnb-bg-GJ9X-LJ9S-WB5L,23.5,299,36.4,1900,INDETERMINE,INDETERMINE,9,20,Résidentiel collectif,,Non exposé,Géorisques
2675E1526765V,2026-06-08,WXGBZAP7KCMW,75118_5288_00124,124 Rue Lamarck 75018 Paris,75018,Paris,75,appartement,avant 1948,,18.2,E,C,374,constructed,2.333778342388959,48.89078059220667,75118,2,adresse_ban,bdnb-bg-NQQT-DQ81-ATBB,26.5,344,61.1,1919,PIERRE,ARDOISES - ZINC ALUMINIUM,8,35,Résidentiel collectif,,Non exposé,Géorisques
2675E1527709D,2026-06-08,3TB9Y43B5TQJ,75108_4485_00176,176 Boulevard Haussmann 75008 Paris,75008,Paris,75,appartement,avant 1948,,46.2,F,F,385,constructed,2.307582145692326,48.87535824177989,75108,1,adresse_ban,bdnb-bg-CSZ4-NLQ1-QP73,23.8,361,39.1,1800,INDETERMINE,ARDOISES - ZINC ALUMINIUM,7,20,Résidentiel collectif,,Non exposé,Géorisques
2675E1528070A,2026-06-08,3TB9Y43B5TQJ,75108_4485_00176,176 Boulevard Haussmann 75008 Paris,75008,Paris,75,appartement,avant 1948,,31.8,G,C,758,constructed,2.307582145692326,48.87535824177989,75108,1,adresse_ban,bdnb-bg-CSZ4-NLQ1-QP73,23.8,361,39.1,1800,INDETERMINE,ARDOISES - ZINC ALUMINIUM,7,20,Résidentiel collectif,,Non exposé,Géorisques
2675E1538359T,2026-06-08,ZEEPNGV8B92X,75114_3967_00032,32 Rue Gassendi 75014 Paris,75014,Paris,75,appartement,avant 1948,,58,E,E,269,constructed,2.326191117917769,48.834350397080904,75114,2,adresse_ban,bdnb-bg-8YV3-YPC7-JPYZ,24.3,155,59.8,1920,PIERRE,AUTRES,8,14,Résidentiel collectif,,Non exposé,Géorisques
2675E1538852S,2026-06-08,J3CNRXY92K95,75120_7904_00271,271 Rue des Pyrénées 75020 Paris,75020,Paris,75,appartement,avant 1948,,22,D,B,228,constructed,2.396198305979946,48.867501558019434,75120,2,adresse_ban,bdnb-bg-8Q1B-A97V-8C1R,20.4,229,97.6,1900,INDETERMINE,ARDOISES,8,28,Résidentiel collectif,,Non exposé,Géorisques
2675E1531155R,2026-06-08,FW2SKWBSWP3V,75117_7766_00078,78 Rue Pouchet 75017 Paris,75017,Paris,75,appartement,avant 1948,,44.2,E,C,312,constructed,2.322765981635782,48.89652690484803,75117,3,adresse_ban,bdnb-bg-Y3Z2-XWY2-MNNE,7.5,60,44.1,1900,MEULIERE - PIERRE,ARDOISES - TUILES,7,30,Résidentiel collectif,,Non exposé,Géorisques
2675E1528331B,2026-06-08,KK4NRDFD3SEC,75115_9624_00277,277 Rue de Vaugirard 75015 Paris,75015,Paris,75,appartement,1948-1974,,48.7,C,C,108,constructed,2.302573186547966,48.839214265795974,75115,1,adresse_ban,bdnb-bg-UQC9-TZTM-CYHP,40.1,700,43.7,1971,BETON,BETON,13,47,Résidentiel collectif,,Non exposé,Géorisques
2675E1537487F,2026-06-08,PAKT31MZAE7B,75110_4497_00043,43 Rue d'Hauteville 75010 Paris,75010,Paris,75,appartement,avant 1948,,47,C,A,115,constructed,2.35045554082262,48.87407640613434,75110,1,adresse_ban,bdnb-bg-KANP-VSVL-7BPX,15.7,167,34.8,1875,INDETERMINE,INDETERMINE,6,10,Résidentiel collectif,,Non exposé,Géorisques
2675E1530678I,2026-06-08,6HR5JNYMKGNM,75113_3817_00003_b,3b Rue Françoise Dolto 75013 Paris,75013,Paris,75,appartement,2006-2012,2007,84.2,B,A,91,constructed,2.382955241412008,48.82927927146022,75113,9,adresse_ban,bdnb-bg-CVSW-X7LZ-H8PQ,34.8,620,34.1,2007,INDETERMINE,INDETERMINE,11,58,Résidentiel collectif,,Non exposé,Géorisques
2675E1527222K,2026-06-08,PFG2ZSDK4BG5,75107_3477_00028,28 Rue Fabert 75007 Paris,75007,Paris,75,appartement,avant 1948,,177.2,C,A,123,constructed,2.311224071310599,48.860207805874154,75107,1,adresse_ban,bdnb-bg-S5Y4-LMNL-E133,24.5,223,32.0,1913,BRIQUES - PIERRE,ARDOISES - ZINC ALUMINIUM,8,11,Résidentiel collectif,,Non exposé,Géorisques
2675E1537284K,2026-06-08,GH6KBBBYEKH5,75118_1723_00003,3 Rue Championnet 75018 Paris,75018,Paris,75,appartement,avant 1948,,14,C,B,252,constructed,2.352422446383382,48.895058878492335,75118,1,adresse_ban,bdnb-bg-LGK6-67B1-REA9,18.0,128,48.0,1900,PIERRE,ZINC ALUMINIUM,7,22,Résidentiel collectif,,Non exposé,Géorisques
2675E1538699V,2026-06-08,5FYJXVWX9NKW,75114_6090_00008,8 Rue des Mariniers 75014 Paris,75014,Paris,75,appartement,1948-1974,,27.3,E,D,290,constructed,2.311579821363055,48.82696246502587,75114,2,adresse_ban,bdnb-bg-SE7M-TJKZ-4NUF,39.4,655,64.2,1970,BETON,BETON,14,128,Résidentiel collectif,,Non exposé,Géorisques
2675E1532680I,2026-06-08,BEBKSN818JZM,75111_3508_00024,24 Rue du Faubourg du Temple 75011 Paris,75011,Paris,75,appartement,avant 1948,1900,45.3,E,E,297.6,constructed,2.366854876317091,48.868084145682246,75111,1,adresse_ban,bdnb-bg-KG47-ZG4F-BFDB,16.7,297,37.0,1850,PIERRE - AUTRES,TUILES,6,27,Résidentiel collectif,,Non exposé,Géorisques
2675E1533901H,2026-06-08,3TB9Y43B5TQJ,75108_4485_00176,176 Boulevard Haussmann 75008 Paris,75008,Paris,75,appartement,avant 1948,,157.4,E,E,312,constructed,2.307582145692326,48.87535824177989,75108,1,adresse_ban,bdnb-bg-CSZ4-NLQ1-QP73,23.8,361,39.1,1800,INDETERMINE,ARDOISES - ZINC ALUMINIUM,7,20,Résidentiel collectif,,Non exposé,Géorisques
2675E1535977D,2026-06-08,8YSYSZW4VD4K,75117_5216_00004,4 Rue Lacaille 75017 Paris,75017,Paris,75,appartement,avant 1948,1945,46.3,C,B,178,constructed,2.325182465066838,48.892785155053836,75117,1,adresse_ban,bdnb-bg-AMRR-RMBX-4M7W,17.5,199,43.3,1850,BRIQUES - PIERRE,ARDOISES - ZINC ALUMINIUM,7,38,Résidentiel collectif,,Non exposé,Géorisques
2675E1527536M,2026-06-08,2ATVYWWTCVWE,75107_5202_00095,95 Avenue de la Bourdonnais 75007 Paris,75007,Paris,75,appartement,1948-1974,,60.7,F,F,364,constructed,2.303597338913394,48.85568745475035,75107,1,adresse_ban,bdnb-bg-LL8B-CBLJ-LDZ6,20.1,195,35.8,1965,BETON,BETON,7,6,Résidentiel collectif,,Non exposé,Géorisques
2675E1525806Y,2026-06-08,VPGC6ENAPS37,75115_8384_00042,42 Rue Rouelle 75015 Paris,75015,Paris,75,appartement,avant 1948,,9.3,F,F,393,constructed,2.288839784703084,48.84956867507304,75115,1,adresse_ban,bdnb-bg-G4JF-4K57-DYMY,25.5,309,30.4,1910,PIERRE,ZINC ALUMINIUM,10,47,Résidentiel collectif,,Non exposé,Géorisques
2675E1526516G,2026-06-08,NFBSPVGGC69M,75119_3625_00008,8 Rue Fessart 75019 Paris,75019,Paris,75,appartement,avant 1948,,24.2,E,C,349,constructed,2.387840196571242,48.8763532984584,75119,2,adresse_ban,bdnb-bg-3LGG-VZS7-QBED,20.4,206,99.0,1985,INDETERMINE,INDETERMINE,7,21,Résidentiel collectif,,Non exposé,Géorisques
2675E1531351F,2026-06-08,NR2DKBYW4T31,75117_2387_00087,87 Rue de Courcelles 75017 Paris,75017,Paris,75,appartement,avant 1948,,8.3,D,C,452,constructed,2.302019746584336,48.87999201682538,75117,2,adresse_ban,bdnb-bg-8H6V-M9Z8-CAMF,22.4,395,41.9,1912,PIERRE,ZINC ALUMINIUM,9,16,Résidentiel collectif,,Non exposé,Géorisques
2675E1531700Q,2026-06-08,BXXJTFV4A31D,75112_9153_00028,28 Rue Taine 75012 Paris,75012,Paris,75,appartement,avant 1948,1925,21.1,D,D,292,constructed,2.393669633216461,48.83869623165388,75112,1,adresse_ban,bdnb-bg-RU27-8WUY-GGYP,22.8,273,47.9,,INDETERMINE,INDETERMINE,9,131,Résidentiel collectif,,Non exposé,Géorisques
2675E1537737V,2026-06-08,8P4D2JPEN1HM,75108_6645_00008,8 Rue Murillo 75008 Paris,75008,Paris,75,appartement,avant 1948,,11.6,C,C,194,constructed,2.308572218751061,48.87805589860727,75108,2,adresse_ban,bdnb-bg-A51R-MCLZ-UEP6,17.4,760,47.0,1860,PIERRE,TUILES,5,11,Résidentiel collectif,,Non exposé,Géorisques
2675E1532171T,2026-06-08,RCRQ4MT269F9,75106_4285_00025,25 Rue des Grands Augustins 75006 Paris,75006,Paris,75,appartement,avant 1948,,38.8,G,C,434,constructed,2.340442174852113,48.8537773233392,75106,1,adresse_ban,bdnb-bg-YUUD-CU9C-LTKT,20.3,180,32.3,1730,BRIQUES - AUTRES,BETON,6,25,Résidentiel collectif,,Non exposé,Géorisques
2675E1526926A,2026-06-08,BJWJ5QAPXKVD,75112_0522_00013,13 Rue de l'Aubrac 75012 Paris,75012,Paris,75,appartement,1989-2000,,24.2,C,A,187,constructed,2.386625080430112,48.83499576209431,75112,15,adresse_ban,bdnb-bg-6NWD-2CAM-9SZT,25.9,1486,33.2,1996,INDETERMINE,INDETERMINE,9,130,Résidentiel collectif,,Non exposé,Géorisques
2675E1526392M,2026-06-08,NR2DKBYW4T31,75117_2387_00087,87 Rue de Courcelles 75017 Paris,75017,Paris,75,appartement,avant 1948,,6.7,G,C,779,constructed,2.302019746584336,48.87999201682538,75117,2,adresse_ban,bdnb-bg-8H6V-M9Z8-CAMF,22.4,395,41.9,1912,PIERRE,ZINC ALUMINIUM,9,16,Résidentiel collectif,,Non exposé,Géorisques
2675E1527942C,2026-06-08,N2ZSXYAH12XN,75106_8151_00151,151 Rue de Rennes 75006 Paris,75006,Paris,75,appartement,avant 1948,,150.7,D,D,188,constructed,2.325652110990759,48.84540766312553,75106,1,adresse_ban,bdnb-bg-6RGG-27VR-A2D8,28.1,214,39.2,1895,PIERRE,ARDOISES - ZINC ALUMINIUM,7,6,Résidentiel collectif,,Non exposé,Géorisques
2675E1530531R,2026-06-08,GZ6F8VYDM73G,75118_1623_00008,8 Rue Cavé 75018 Paris,75018,Paris,75,appartement,avant 1948,,30,F,C,430,constructed,2.355650385332434,48.8869051250197,75118,3,adresse_ban,bdnb-bg-8G31-31J4-J717,19.0,208,59.0,2002,MEULIERE,ZINC ALUMINIUM,6,28,Résidentiel collectif,,Non exposé,Géorisques
2675E1538843J,2026-06-08,XEZSE1RC6PCB,75115_8513_00024,24 Rue Saint-Charles 75015 Paris,75015,Paris,75,appartement,avant 1948,,51.9,E,B,271,constructed,2.289061028367574,48.85088083544949,75115,1,adresse_ban,bdnb-bg-GPZE-T5LN-YQZP,24.2,171,29.5,1912,BRIQUES - PIERRE,ZINC ALUMINIUM,8,15,Résidentiel collectif,,Non exposé,Géorisques
2675E1529795J,2026-06-08,R9V7V49HH12Y,75119_3659_00070,70 Avenue de Flandre 75019 Paris,75019,Paris,75,appartement,avant 1948,1945,53.7,D,B,189,constructed,2.374896984904379,48.88876765846572,75119,1,adresse_ban,bdnb-bg-AQG8-3Q12-5VJP,21.1,608,48.7,1886,BRIQUES - MEULIERE,ARDOISES - ZINC ALUMINIUM,7,62,Résidentiel collectif,,Non exposé,Géorisques
2675E1530119V,2026-06-08,KB3377TKH6S7,75116_3465_00086,86 Boulevard Exelmans 75016 Paris,75016,Paris,75,appartement,1948-1974,1966,89.2,D,D,164,constructed,2.259880494197511,48.84362831689606,75116,1,adresse_ban,bdnb-bg-92V5-CRFN-9G7Z,24.9,273,39.0,1966,BETON - BRIQUES,BETON,8,18,Résidentiel collectif,,Non exposé,Géorisques
2675E1536890G,2026-06-08,BJWJ5QAPXKVD,75112_0522_00013,13 Rue de l'Aubrac 75012 Paris,75012,Paris,75,appartement,1989-2000,,28.1,C,A,177,constructed,2.386625080430112,48.83499576209431,75112,15,adresse_ban,bdnb-bg-6NWD-2CAM-9SZT,25.9,1486,33.2,1996,INDETERMINE,INDETERMINE,9,130,Résidentiel collectif,,Non exposé,Géorisques
2675E1534638Q,2026-06-08,MPYGQ9P81PSD,75119_9058_00003,3 Cours du Septième Art 75019 Paris,75019,Paris,75,appartement,1989-2000,,33.4,C,A,158,constructed,2.386946304596325,48.87775199633572,75119,10,adresse_ban,bdnb-bg-XR84-48KZ-CG12,19.6,1615,99.9,2000,INDETERMINE,INDETERMINE,8,174,Résidentiel collectif,,Non exposé,Géorisques
2675E1532809H,2026-06-08,QCFBRPKDMTQ8,75102_7561_00029,29 Rue Poissonnière 75002 Paris,75002,Paris,75,appartement,avant 1948,,47.9,F,C,365,constructed,2.347618300119241,48.8698568713049,75102,1,adresse_ban,bdnb-bg-JQPT-S3AS-N5WW,15.0,239,42.0,1890,BRIQUES - MEULIERE,ZINC ALUMINIUM,7,18,Résidentiel collectif,,Non exposé,Géorisques
2675E1528917P,2026-06-08,2K26SC8ARW22,75119_7314_00016,16 Rue Petit 75019 Paris,75019,Paris,75,appartement,avant 1948,,59.7,E,E,234,constructed,2.380937991711745,48.884667470498215,75119,1,adresse_ban,bdnb-bg-MPXT-XEBR-MG2G,22.4,149,53.1,1930,BRIQUES - AUTRES,TUILES,8,16,Résidentiel collectif,,Non exposé,Géorisques
2675E1527348G,2026-06-08,26ZR721EW5S2,75102_5850_00041,41 Rue de la Lune 75002 Paris,75002,Paris,75,appartement,avant 1948,,72.2,F,F,405,constructed,2.348117252090537,48.86999508718616,75102,2,adresse_ban,bdnb-bg-WGAY-EWJR-8RQB,13.8,123,42.9,1870,MEULIERE,ZINC ALUMINIUM,7,13,Résidentiel collectif,,Non exposé,Géorisques
2675E1529236W,2026-06-08,5YDN84GVTRNV,75118_9708_00006,6 Rue Versigny 75018 Paris,75018,Paris,75,appartement,avant 1948,,44.1,D,B,240,constructed,2.344715271090498,48.894604546187075,75118,2,adresse_ban,bdnb-bg-ZTFP-YLPL-9JB2,17.9,231,53.3,1890,PIERRE,ZINC ALUMINIUM,6,20,Résidentiel collectif,,Non exposé,Géorisques
2675E1536694S,2026-06-08,T7ET6KF9F2PH,75114_6238_00015,15 Rue Méchain 75014 Paris,75014,Paris,75,appartement,1989-2000,,20.1,C,A,205,constructed,2.339476994357779,48.83553957897685,75114,2,adresse_ban,bdnb-bg-4XT1-VEEY-S5ZK,20.2,541,53.5,1992,BETON,AUTRES,7,37,Résidentiel collectif,,Non exposé,Géorisques
2675E1531060A,2026-06-08,Y4SNKFBBVKRN,75111_3485_00042,42 Rue Faidherbe 75011 Paris,75011,Paris,75,appartement,avant 1948,,37.8,G,C,592,constructed,2.382920141140545,48.85349105545684,75111,2,adresse_ban,bdnb-bg-KYG6-2EH9-PLSR,22.5,256,38.0,1894,MEULIERE,ARDOISES - ZINC ALUMINIUM,8,23,Résidentiel collectif,,Non exposé,Géorisques
2675E1537871Z,2026-06-08,Q2VG1EDZD7RD,75109_3713_00016_b,16b Rue Pierre Fontaine 75009 Paris,75009,Paris,75,appartement,1975-1977,,47.8,D,D,200,constructed,2.334507511160966,48.88147433646239,75109,1,adresse_ban,bdnb-bg-WDNV-PH6J-JPBX,27.2,302,51.7,1960,BETON - BOIS,BETON,9,15,Résidentiel collectif,,Non exposé,Géorisques
2675E1534026C,2026-06-08,BYMHMGDDFM5A,75115_5399_00002,2 Rue Laure Surville 75015 Paris,75015,Paris,75,appartement,avant 1948,1925,56.3,E,E,250,constructed,2.277951298324578,48.84593556134104,75115,2,adresse_ban,bdnb-bg-EAV9-ASUW-HBRK,25.1,372,31.0,1925,BRIQUES - MEULIERE,ARDOISES - ZINC ALUMINIUM,8,29,Résidentiel collectif,,Non exposé,Géorisques
2675E1538443Z,2026-06-08,FAGYGNDFKJG2,75111_8358_00069,69 Rue de la Roquette 75011 Paris,75011,Paris,75,appartement,avant 1948,,23.1,D,B,276,constructed,2.376755319474324,48.856609500066206,75111,1,adresse_ban,bdnb-bg-91RU-V6MC-M9MZ,15.6,541,30.5,1914,AUTRES,TUILES,5,35,Résidentiel collectif,,Non exposé,Géorisques
2675E1528888M,2026-06-08,W17BJPPBNXHH,75115_3536_00002,2 Rue des Favorites 75015 Paris,75015,Paris,75,appartement,1948-1974,,63.5,D,D,185,constructed,2.302613798310348,48.83966544092553,75115,3,adresse_ban,bdnb-bg-63SL-Q7AV-BDKZ,3.6,129,45.0,1971,BETON,BETON,13,90,Résidentiel collectif,,Non exposé,Géorisques
2675E1532226W,2026-06-08,JRTY9K3ZSK3R,75105_5220_00003,3 Rue Lacépède 75005 Paris,75005,Paris,75,appartement,avant 1948,,16.8,F,C,459,constructed,2.354044850806073,48.84359887525868,75105,2,adresse_ban,bdnb-bg-ZGB1-K6DG-LDJZ,16.3,137,42.7,1971,MEULIERE,ARDOISES,6,19,Résidentiel collectif,,Non exposé,Géorisques
2675E1531019L,2026-06-08,NF9S51N6VETS,75119_8463_00003,3 Rue Sadi Lecointe 75019 Paris,75019,Paris,75,appartement,avant 1948,,35.5,E,B,280,constructed,2.373323470898723,48.88075669224905,75119,1,adresse_ban,bdnb-bg-RLRF-9CXR-ZUVU,22.1,113,55.9,1900,MEULIERE - AUTRES,ZINC ALUMINIUM,7,15,Résidentiel collectif,,Non exposé,Géorisques
2675E1530027H,2026-06-08,R95HDZ7CSDE8,75110_5907_00019,19 Boulevard de Magenta 75010 Paris,75010,Paris,75,appartement,avant 1948,1875,18.8,E,B,307,constructed,2.360868714076425,48.87049417668034,75110,1,adresse_ban,bdnb-bg-LA8N-RBZK-RM3E,24.5,340,34.0,1875,MEULIERE,ARDOISES - ZINC ALUMINIUM,8,10,Résidentiel collectif,,Non exposé,Géorisques
2675E1535759T,2026-06-08,N7HXKRA4KNF2,75112_3955_00041,41 Rue de la Gare de Reuilly 75012 Paris,75012,Paris,75,appartement,avant 1948,,18.6,E,B,321,constructed,2.395506058648648,48.8419901338942,75112,1,adresse_ban,bdnb-bg-33YN-V5V9-WLU4,10.2,60,51.0,1880,INDETERMINE,INDETERMINE,5,21,Résidentiel collectif,,Non exposé,Géorisques
2675E1530719X,2026-06-08,X7X46K2QMCNP,75103_9828_00018,18 Rue Villehardouin 75003 Paris,75003,Paris,75,appartement,avant 1948,,78.5,C,C,113,constructed,2.365339527370985,48.85886195194848,75103,1,adresse_ban,bdnb-bg-JPC7-GU4J-GS7M,8.1,112,35.0,1850,PIERRE,ZINC ALUMINIUM,6,20,Résidentiel collectif,,Non exposé,Géorisques
2675E1538555H,2026-06-08,9BFQ3WPT3JCC,75120_8022_00068,68 Rue Ramus 75020 Paris,75020,Paris,75,appartement,avant 1948,,13.1,D,B,305,constructed,2.397760035737302,48.86371999340372,75120,3,adresse_ban,bdnb-bg-QHU1-K3WD-A6B9,22.2,202,86.3,1907,BRIQUES - MEULIERE,ARDOISES - BETON,8,27,Résidentiel collectif,,Non exposé,Géorisques
2675E1528522K,2026-06-08,8YHCGABQZ348,75109_3713_00031,31 Rue Pierre Fontaine 75009 Paris,75009,Paris,75,appartement,avant 1948,,36.5,E,E,312,constructed,2.333169831625316,48.88267088990089,75109,1,adresse_ban,bdnb-bg-MM3A-ZWGQ-RDSK,17.3,184,60.7,1850,MEULIERE,ZINC ALUMINIUM,7,21,Résidentiel collectif,,Non exposé,Géorisques
2675E1537790W,2026-06-08,BYWJGRYVYGTA,75105_6432_00025,25 Rue Monge 75005 Paris,75005,Paris,75,appartement,avant 1948,,30,E,B,296,constructed,2.35132898077547,48.847293897174794,75105,2,adresse_ban,bdnb-bg-MLAE-K9DY-JEAK,22.9,237,37.2,1920,PIERRE,ZINC ALUMINIUM,7,28,Résidentiel collectif,,Non exposé,Géorisques
2675E1530301V,2026-06-08,982MZWFX6GX4,75116_7804_00021,21 Avenue du Président Wilson 75016 Paris,75016,Paris,75,appartement,avant 1948,,33.6,G,F,584,constructed,2.294568933614514,48.86454769581594,75116,1,adresse_ban,bdnb-bg-6S5P-N1K9-BAB6,20.8,285,40.2,1900,PIERRE,ARDOISES,8,8,Résidentiel collectif,,Non exposé,Géorisques
2675E1535564G,2026-06-08,ZZ5HP446GVBP,75106_9634_00009,9 Rue Vavin 75006 Paris,75006,Paris,75,appartement,avant 1948,,33.5,E,D,272,constructed,2.331494263439576,48.844298261739965,75106,1,adresse_ban,bdnb-bg-XM85-S6NM-WS74,14.2,218,52.1,1934,BETON - BRIQUES,AUTRES,7,52,Résidentiel collectif,,Non exposé,Géorisques
2675E1535079P,2026-06-08,2RHKBCG9GF87,75116_4357_00004,4 Rue Gudin 75016 Paris,75016,Paris,75,maison,avant 1948,1880,139.2,C,C,140.1,constructed,2.259768565279358,48.83738298313406,75116,1,adresse_ban,bdnb-bg-78PH-XHAZ-JNM4,11.5,102,36.0,1880,PIERRE,TUILES - ZINC ALUMINIUM,1,1,Résidentiel individuel,,Non exposé,Géorisques
2675E1528356A,2026-06-08,WRX5379WY928,75110_1765_00017,17 Boulevard de la Chapelle 75010 Paris,75010,Paris,75,appartement,avant 1948,,32.4,F,C,391,constructed,2.361959715285757,48.88403076875933,75110,1,adresse_ban,bdnb-bg-8BG2-ZCLZ-4CJD,23.5,240,51.6,1900,PIERRE,ZINC ALUMINIUM,7,23,Résidentiel collectif,,Non exposé,Géorisques
2675E1529085B,2026-06-08,ZAS59FMQYSRC,75106_6228_00070,70 Rue Mazarine 75006 Paris,75006,Paris,75,appartement,avant 1948,,19,G,C,512,constructed,2.337406475922824,48.854300336499904,75106,1,adresse_ban,bdnb-bg-MYBQ-182K-Y1QL,21.6,110,34.0,1830,MEULIERE,ARDOISES - ZINC ALUMINIUM,6,31,Résidentiel collectif,,Non exposé,Géorisques
2675E1529163B,2026-06-08,9SFD46E6PV25,75106_8767_00071,71 Rue des Saints-Pères 75006 Paris,75006,Paris,75,appartement,avant 1948,,61.6,E,B,264,constructed,2.329983870081782,48.85306093420306,75106,1,adresse_ban,bdnb-bg-PWFS-ZXCQ-8U9K,20.8,111,36.1,1750,MEULIERE,TUILES,6,36,Résidentiel collectif,,Non exposé,Géorisques
2675E1526902C,2026-06-08,AKFE6K22N8YY,75120_3983_00041,41 Rue des Gâtines 75020 Paris,75020,Paris,75,appartement,avant 1948,,16.4,E,C,348,constructed,2.399378656381024,48.866471387490655,75120,1,adresse_ban,bdnb-bg-A9AQ-N91P-6C6H,25.5,282,88.9,1930,BRIQUES - PIERRE,ARDOISES - ZINC ALUMINIUM,9,37,Résidentiel collectif,,Non exposé,Géorisques
2675E1528393L,2026-06-08,9NB9HQ7V7JSM,75115_1663_00066,66 Rue des Cévennes 75015 Paris,75015,Paris,75,appartement,1948-1974,1958,38.6,F,F,355,constructed,2.282044850949448,48.84169048880434,75115,2,adresse_ban,bdnb-bg-PSVW-DWG5-4G4Q,24.5,134,29.2,1958,PIERRE,ZINC ALUMINIUM,9,15,Résidentiel collectif,,Non exposé,Géorisques
2675E1525938A,2026-06-08,Z3MECWWK7DE4,75115_2459_00128,128 Rue de la Croix Nivert 75015 Paris,75015,Paris,75,appartement,1948-1974,1965,74.1,C,C,146,constructed,2.292497921182651,48.84212252357772,75115,1,adresse_ban,bdnb-bg-76PS-G25V-C45C,3.1,390,34.0,1968,BETON,BETON,11,86,Tertiaire & Autres,,Non exposé,Géorisques
2675E1537679P,2026-06-08,8P4D2JPEN1HM,75108_6645_00008,8 Rue Murillo 75008 Paris,75008,Paris,75,appartement,avant 1948,,13.4,C,C,168,constructed,2.308572218751061,48.87805589860727,75108,2,adresse_ban,bdnb-bg-A51R-MCLZ-UEP6,17.4,760,47.0,1860,PIERRE,TUILES,5,11,Résidentiel collectif,,Non exposé,Géorisques
