numero_dpe,date_etablissement_dpe,id_rnb,identifiant_ban,adresse_ban,code_postal_ban,nom_commune_ban,code_departement_ban,type_batiment,periode_construction,annee_construction,surface_habitable_logement,etiquette_dpe,etiquette_ges,conso_5_usages_par_m2_ep,rnb_status,rnb_lon,rnb_lat,rnb_insee_code,rnb_n_addresses,rnb_match,bdnb_batiment_groupe_id,bdnb_hauteur,bdnb_s_geom_cstr,bdnb_altitude_sol,bdnb_annee_construction,bdnb_mat_mur,bdnb_mat_toit,bdnb_nb_niveau,bdnb_nb_log,bdnb_usage,bdnb_alea_argiles
2633E1525812O,2026-06-08,5FTNS85BTCH3,33096_0569_00013,13 Avenue du Maréchal Foch 33560 Carbon-Blanc,33560,Carbon-Blanc,33,appartement,1978-1982,1978,53.1,D,B,243.8,constructed,-0.504388330388186,44.90290463979253,33096,1,id_rnb,bdnb-bg-EE2E-DGPE-X9D5,13.9,392,26.0,1979,BETON - BRIQUES,TUILES,5,18,Résidentiel collectif,Fort
2633E1526124O,2026-06-08,N92KHEFYQFZ3,33449_0588_00017,17 Rue Gustave Courbet 33160 Saint-Médard-en-Jalles,33160,Saint-Médard-en-Jalles,33,maison,1948-1974,,145,C,A,159,constructed,-0.698391345578054,44.87746022061013,33449,1,id_rnb,bdnb-bg-9TR1-AHXK-1K45,3.2,140,32.8,1968,BETON - BRIQUES,TUILES - AUTRES,1,1,Résidentiel individuel,Moyen
2633E1530280K,2026-06-08,ADGGD8EJW8B3,33167_1158_00009,9 Rue Joan Miro 33270 Floirac,33270,Floirac,33,maison,2006-2012,,101.5,C,C,129,constructed,-0.536755440801423,44.836333090706326,33167,1,id_rnb,bdnb-bg-GYY6-KAD7-B3AL,6.4,247,2.9,2012,BRIQUES,TUILES,2,10,Résidentiel individuel,Moyen
2633E1530259P,2026-06-08,QWXTRCGM9ZRQ,33063_gi5v2o_00036,36 Rue Bavard 33200 Bordeaux,33200,Bordeaux,33,maison,1948-1974,,112,C,C,123,constructed,-0.625883739428714,44.86389029818859,33063,1,id_rnb,bdnb-bg-YY32-CPM6-NUF2,3.5,132,26.0,1841,INDETERMINE,INDETERMINE,1,2,Résidentiel individuel,Fort
2633E1533724W,2026-06-08,FXGY2E485XZS,33063_6390_00012,12 Rue Minvielle 33000 Bordeaux,33000,Bordeaux,33,appartement,avant 1948,,98.5,B,A,87,constructed,-0.571578118698281,44.853177801744295,33063,1,id_rnb,bdnb-bg-BWSQ-YMRZ-MWSQ,13.2,109,4.2,1900,PIERRE,TUILES,3,8,Résidentiel collectif,Moyen
2633E1526534I,2026-06-08,FPFR7ZA1WH8F,33312_0295_00002,2 Allée du Bois du Château 33290 Parempuyre,33290,Parempuyre,33,maison,1978-1982,,158.3,D,B,241,constructed,-0.60638233580476,44.94361971942945,33312,1,id_rnb,bdnb-bg-EU4X-2U3M-P276,5.5,168,7.2,1983,BRIQUES,TUILES,2,1,Résidentiel individuel,Fort
2633E1535535N,2026-06-08,KXYP8886SZWQ,33550_0630_00037_bis,37bis Chemin de Hourcade 33140 Villenave-d'Ornon,33140,Villenave-d'Ornon,33,maison,1989-2000,,150,C,C,99,constructed,-0.54437031434402,44.78370279833673,33550,1,id_rnb,bdnb-bg-2JB9-86YZ-DE4C,4.2,166,5.6,1998,BRIQUES,TUILES,2,1,Résidentiel individuel,Moyen
2633E1536550O,2026-06-08,9KR381HPEBKZ,33063_8640_00005,5 Allée Serr 33100 Bordeaux,33100,Bordeaux,33,appartement,2013-2021,,90,C,C,76,constructed,-0.561083847889394,44.84114471645718,33063,2,id_rnb,bdnb-bg-P3HZ-C3MG-373D,10.4,433,6.3,2015,INDETERMINE,INDETERMINE,6,12,Résidentiel collectif,Moyen
2633E1536847Z,2026-06-08,G7EDFT5QVE8C,33366_0321_00071_d,71d Rue de la Fontaine 33240 Saint-André-de-Cubzac,33240,Saint-André-de-Cubzac,33,maison,2001-2005,,80.5,C,B,165,constructed,-0.434522817481798,44.99972072847263,33366,2,id_rnb,bdnb-bg-3APZ-YZK5-QVRM,5.6,128,46.0,2001,BRIQUES,TUILES,1,1,Résidentiel individuel,Fort
2633E1526333P,2026-06-08,2TYDGPFRV7CW,33162_0429_00015_a,15A Allée du Moulin a Vent 33320 Eysines,33320,Eysines,33,appartement,1989-2000,,45.4,D,B,195,constructed,-0.645940941254305,44.884925990666616,33162,2,id_rnb,bdnb-bg-FDLS-F16C-R2UJ,5.5,277,28.5,1994,INDETERMINE,INDETERMINE,2,30,Résidentiel collectif,Fort
2633E1534357F,2026-06-08,3N2KQB5V8NA8,33437_5610_00096,96 Avenue du Stade 33350 Saint-Magne-de-Castillon,33350,Saint-Magne-de-Castillon,33,maison,avant 1948,,186.8,C,A,126,constructed,-0.081056578977453,44.84328970870014,33437,1,id_rnb,bdnb-bg-RMB1-BX93-DZCM,2.7,242,16.3,1850,PIERRE,TUILES,2,1,Résidentiel individuel,Moyen
2633E1525748C,2026-06-08,234BMSA7Y3Y1,33281_0940_00017,17 Rue Fontaine d'Arlac 33700 Mérignac,33700,Mérignac,33,appartement,1983-1988,,46.3,D,B,233,constructed,-0.624869441901242,44.82692877002623,33281,1,id_rnb,bdnb-bg-22PN-BNH9-YJQQ,17.6,726,20.8,1985,BETON,BETON,6,79,Résidentiel collectif,Fort
2633E1529099Z,2026-06-08,F99WWPHRWHNE,33063_6065_00123,123 Cours de la Marne 33800 Bordeaux,33800,Bordeaux,33,appartement,avant 1948,,34.1,C,A,163,constructed,-0.565682070885964,44.82916459889262,33063,1,id_rnb,bdnb-bg-K773-9LGR-BFGU,12.7,88,9.2,1800,PIERRE,TUILES,4,6,Résidentiel collectif,Fort
2633E1525870U,2026-06-08,N9KZJESV34AG,33090_4178_00014,14 Chemin de Cassiot 33610 Canéjan,33610,Canéjan,33,maison,1948-1974,,190.3,D,D,184,constructed,-0.653276500595132,44.75998029830825,33090,1,id_rnb,bdnb-bg-868X-Z74U-P3XV,3.4,82,33.4,,,,,,,Fort
2633E1538907F,2026-06-08,2ZKS8TQTF83Q,33174_0145_00021,21 Rue du port de La Feuillade 33126 Fronsac,33126,Fronsac,33,appartement,avant 1948,,82,C,A,148,constructed,-0.248057194153972,44.917343628940365,33174,3,id_rnb,bdnb-bg-W9SM-GRW1-QM19,6.8,175,4.6,2003,BRIQUES,TUILES,1,29,Résidentiel individuel,Moyen
2633E1528437N,2026-06-08,G857PX1HRV1K,33075_0098_00010,10 Rue de la Colonne 33520 Bruges,33520,Bruges,33,immeuble,1948-1974,,,E,E,273,constructed,-0.614138987565156,44.87252476605539,33075,1,id_rnb,bdnb-bg-3UT5-JSB2-FGYZ,14.8,362,18.0,1968,BETON - BRIQUES,BETON,5,65,Résidentiel collectif,Moyen
2633E1531002E,2026-06-08,8PHGW1HA2T3F,33162_0384_00005,5 Rue Louis Jouvet 33320 Eysines,33320,Eysines,33,maison,2006-2012,,166.5,C,B,154,constructed,-0.638371151834935,44.88183373625619,33162,1,id_rnb,bdnb-bg-Z79X-5WAS-LFGP,5.9,325,30.5,2005,AGGLOMERE,TUILES,1,1,Résidentiel individuel,Fort
2633E1529659N,2026-06-08,WWVXEF35R7JT,33080_0353_00019,19 Rue des Graves 33140 Cadaujac,33140,Cadaujac,33,maison,1989-2000,1989,131.1,D,B,181,constructed,-0.543679193904375,44.74933716588674,33080,1,id_rnb,bdnb-bg-YH3R-RRUC-Q8VT,3.3,131,18.6,1989,BRIQUES,TUILES,1,1,Résidentiel individuel,Moyen
2633E1532524S,2026-06-08,QE1C584KRDW5,33063_5220_00061,61 Rue de Laseppe 33000 Bordeaux,33000,Bordeaux,33,immeuble,1975-1977,,,E,C,303,constructed,-0.584509840271928,44.85336912102977,33063,1,id_rnb,bdnb-bg-9NQU-7PFZ-ENVZ,10.1,130,4.0,1800,PIERRE,TUILES,4,12,Résidentiel collectif,Fort
2633E1533807B,2026-06-08,CEB3HKDFEWAV,33366_0265_00032,32 Rue Elie Faure 33240 Saint-André-de-Cubzac,33240,Saint-André-de-Cubzac,33,maison,1989-2000,1999,67.6,D,B,198,constructed,-0.433790019302808,44.99986718359679,33366,3,id_rnb,bdnb-bg-YA1N-LDUR-MAR2,3.2,161,46.3,2000,BETON,TUILES,1,2,Résidentiel collectif,Fort
2633E1529540Y,2026-06-08,JGBFSDJ3MWHN,33063_8855,Rue du Tauzin 33000 Bordeaux,33000,Bordeaux,33,appartement,1989-2000,,50.2,C,A,151,constructed,-0.601310836594526,44.82140132853476,33063,1,id_rnb,bdnb-bg-TWXU-TWLD-KCT5,16.5,838,21.2,1992,BETON,AUTRES,6,155,Résidentiel collectif,Moyen
2633E1530316U,2026-06-08,QE1C584KRDW5,33063_5220_00061,61 Rue de Laseppe 33000 Bordeaux,33000,Bordeaux,33,appartement,1978-1982,,22.8,C,B,186,constructed,-0.584509840271928,44.85336912102977,33063,1,id_rnb,bdnb-bg-9NQU-7PFZ-ENVZ,10.1,130,4.0,1800,PIERRE,TUILES,4,12,Résidentiel collectif,Fort
2633E1531478M,2026-06-08,EFPZD1TCJEYQ,33162_0121_00016,16 Rue Charles Gounod 33320 Eysines,33320,Eysines,33,maison,1948-1974,,119.8,D,D,152,constructed,-0.640797836659807,44.866337914398514,33162,1,id_rnb,bdnb-bg-ZTR1-XBFA-7ZBP,4.0,144,34.5,1975,BRIQUES,TUILES,1,1,Résidentiel individuel,Moyen
2633E1531498G,2026-06-08,4ZJT43R8QFSR,33063_7240_00058,58 Rue Peyronnet 33800 Bordeaux,33800,Bordeaux,33,appartement,avant 1948,,13.2,C,A,220,constructed,-0.560503583774859,44.828347751578036,33063,1,id_rnb,bdnb-bg-5E4P-PKD4-LJ8Y,13.5,78,5.5,1830,PIERRE,TUILES,4,5,Résidentiel collectif,Fort
2633E1529733J,2026-06-08,7MZGC9D3QY31,33039_0549_00021,21 Allée des Cheminots 33130 Bègles,33130,Bègles,33,appartement,2013-2021,,43.5,C,C,83,constructed,-0.543100642610685,44.798777305299936,33039,2,id_rnb,bdnb-bg-XKP5-LRKR-ZXCE,12.2,233,5.3,2018,INDETERMINE,INDETERMINE,4,8,Résidentiel collectif,Moyen
2633E1533441Z,2026-06-08,9ENZS1T2PR98,33063_8820_00022,22 Rue de Taregua 33800 Bordeaux,33800,Bordeaux,33,appartement,1978-1982,,23.7,E,B,303,constructed,-0.574021758814557,44.8137026496006,33063,1,id_rnb,bdnb-bg-8HPF-1LRK-PVKH,10.1,133,14.6,1977,PIERRE,TUILES,3,8,Résidentiel collectif,Moyen
2633E1533928S,2026-06-08,FCDWWCR5FKE8,33063_1415,Rue Camena d'Almeida 33000 Bordeaux,33000,Bordeaux,33,appartement,1983-1988,,47,C,A,144,constructed,-0.608355732487338,44.83172697617029,33063,3,id_rnb,bdnb-bg-WYMM-Q1PR-VU1H,5.2,139,21.8,1910,PIERRE,TUILES,1,1,Résidentiel individuel,Moyen
2633E1531004G,2026-06-08,D76GX1RR9EP6,33249_0222_00001,1 Côte de la Garonne 33310 Lormont,33310,Lormont,33,appartement,2013-2021,2020,45.9,A,A,54,constructed,-0.518212933213507,44.88623243410737,,0,id_rnb,bdnb-bg-ZRPB-MXH3-PJY4,5,1412,,2020,INDETERMINE,INDETERMINE,11,134,Résidentiel collectif,Fort
2633E1532890U,2026-06-08,6HB8SJVYQWP9,33433_0240_00025,25 Rue Frederic Chopin 33450 Saint-Loubès,33450,Saint-Loubès,33,maison,2006-2012,2011,100.8,C,B,159,constructed,-0.440171576731673,44.92303116053823,33433,1,id_rnb,bdnb-bg-F5DX-3RJM-XP65,4.1,129,12.1,2012,BETON - BRIQUES,INDETERMINE,1,1,Résidentiel individuel,Moyen
2633E1528945B,2026-06-08,GNNBXFF6RNCH,33063_4680_00067,67 Rue Jean Renaud Dandicolle 33000 Bordeaux,33000,Bordeaux,33,appartement,avant 1948,,26.4,D,B,273,constructed,-0.588942490042916,44.83172833842773,33063,1,id_rnb,bdnb-bg-8G1S-6XL5-TXUT,8.5,127,11.8,,INDETERMINE,INDETERMINE,3,6,Résidentiel collectif,Moyen
2633E1536614A,2026-06-08,DQKY64GD43YY,33281_2250_00012,12 Rue Paul Doumer 33700 Mérignac,33700,Mérignac,33,appartement,1975-1977,,20.1,E,D,331,constructed,-0.614946609232185,44.83043711972367,33281,2,id_rnb,bdnb-bg-SRWS-4PVU-X52A,19.4,404,24.2,1975,BETON,AUTRES,7,112,Résidentiel collectif,Moyen
2633E1537606E,2026-06-08,861YPE4TD7WP,33063_6745_00091,91 Rue Notre Dame 33000 Bordeaux,33000,Bordeaux,33,appartement,avant 1948,,46,D,B,206,constructed,-0.570696353298575,44.852567584548424,33063,1,id_rnb,bdnb-bg-MJGK-52ZZ-WTGD,16.1,80,4.2,,INDETERMINE,INDETERMINE,5,5,Résidentiel collectif,Moyen
2633E1530855N,2026-06-08,8VHAP66XKCWZ,33366_0309_00035_bis,35bis Rue de Fonboudeau 33240 Saint-André-de-Cubzac,33240,Saint-André-de-Cubzac,33,appartement,avant 1948,,37.6,E,B,266,constructed,-0.440238885987428,44.99704713694677,33366,1,id_rnb,bdnb-bg-4T73-V7NZ-5NAS,4.6,63,43.8,1900,PIERRE,TUILES,2,1,Résidentiel individuel,Fort
2633E1533662M,2026-06-08,695ATSMCSHPK,33522_0725,Rue du 19 Mars 1962 33400 Talence,33400,Talence,33,appartement,2013-2021,2019,41.1,C,C,94,constructed,-0.594524985695563,44.79707460425009,33522,2,id_rnb,bdnb-bg-37RD-WR3Q-YPUJ,6.7,1664,22.2,2019,INDETERMINE,INDETERMINE,7,129,Résidentiel collectif,Moyen
2633E1529872S,2026-06-08,VQR3CTE2BN1P,33192_7692_00001,1 Rue des Mésanges 33170 Gradignan,33170,Gradignan,33,maison,1948-1974,,82,B,A,102,constructed,-0.61028465994809,44.78406987175741,33192,1,id_rnb,bdnb-bg-P2P4-RH15-APYD,6.3,55,36.1,1958,AGGLOMERE,TUILES,2,1,Résidentiel individuel,Moyen
2633E1530263T,2026-06-08,Q84AE6M482Q4,33529_0880,Rue du Docteur Sémiac 33260 La Teste-de-Buch,33260,La Teste-de-Buch,33,appartement,2006-2012,2006,63.4,D,B,247,constructed,-1.138725427697887,44.63498446242615,33529,2,id_rnb,bdnb-bg-MMHG-YY3C-D9B4,6.2,82,2.6,2005,INDETERMINE,INDETERMINE,1,4,Résidentiel individuel,Moyen
2633E1537608G,2026-06-08,5DZGYWAJ471R,33550_0265_00020,20 Rue Colette Besson 33140 Villenave-d'Ornon,33140,Villenave-d'Ornon,33,appartement,2013-2021,2014,39.5,C,C,89,constructed,-0.535204079142251,44.777653173128726,33550,1,id_rnb,bdnb-bg-V2R6-PCXN-17VQ,8.5,326,8.3,2015,INDETERMINE,INDETERMINE,4,9,Résidentiel collectif,Moyen
2633E1536534Y,2026-06-08,ZDJTRWVCB1MH,33522_1285_00010,10 Avenue Georges Lasserre 33400 Talence,33400,Talence,33,appartement,2013-2021,,28.6,C,C,107,constructed,-0.591196671837925,44.80542658039738,33522,1,id_rnb,bdnb-bg-6SRA-GW75-RMYS,21.8,843,17.9,2018,INDETERMINE,INDETERMINE,7,124,Résidentiel collectif,Moyen
2633E1537637J,2026-06-08,WN8KG7TWC1FE,33063_rwn1sj_00017,17 Avenue de la Gare 33200 Bordeaux,33200,Bordeaux,33,appartement,2006-2012,2008,59.6,C,C,135,constructed,-0.629742832044404,44.845611069765795,33063,5,id_rnb,bdnb-bg-1E2S-TVW2-QC4H,14.0,2036,29.2,2008,BETON,TUILES,6,86,Résidentiel collectif,Fort
2633E1529943L,2026-06-08,92HDMYEKRXAF,33219_0200_00010,10 Chemin du Pusquey 33240 La Lande-de-Fronsac,33240,La Lande-de-Fronsac,33,maison,avant 1948,,166,D,C,187,constructed,-0.38232628313837,44.98763592652058,33219,1,id_rnb,bdnb-bg-8L58-7AWC-ZX36,2.4,163,44.1,1850,PIERRE,TUILES,2,1,Résidentiel individuel,Fort
2633E1526048Q,2026-06-08,35QT2VC69CV4,33550_0180_00032,32 Rue Bouche 33140 Villenave-d'Ornon,33140,Villenave-d'Ornon,33,maison,avant 1948,,49.3,E,C,307,constructed,-0.573407057984833,44.80299984321221,33550,1,id_rnb,bdnb-bg-MJMJ-PSLU-DCLV,3.3,54,17.0,1934,AGGLOMERE,TUILES,1,1,Résidentiel individuel,Moyen
2633E1531119R,2026-06-08,VSV8XW1NDGTA,33018_0118_00035,35 Rue de la Gruppe 33240 Val de Virvée,33240,Val de Virvée,33,maison,avant 1948,,413.9,C,A,134,constructed,-0.416218242436479,45.01423498410424,33018,1,id_rnb,bdnb-bg-5NH3-J9CE-2M2F,6.9,334,49.0,1900,MEULIERE - PIERRE,TUILES,2,1,Résidentiel individuel,Fort
2633E1537417X,2026-06-08,W97K8G75E1NA,33268_0147_00005,5 Chemin du Gondet 33460 Margaux-Cantenac,33460,Margaux-Cantenac,33,maison,avant 1948,,117.3,C,C,152,constructed,-0.651560291466993,45.02850963397674,33268,1,id_rnb,bdnb-bg-NLYY-9Y1Q-KMF4,4.1,112,4.7,,,,,,,Fort
2633E1530833R,2026-06-08,JWXR2Q5GPQ68,33052_0080_00007,7 Rue du Bocage 33500 Les Billaux,33500,Les Billaux,33,maison,avant 1948,,120,C,C,144,constructed,-0.238345937182793,44.95337693341449,33052,1,id_rnb,bdnb-bg-E656-EADL-CC4W,3.9,113,6.4,1943,BRIQUES - PIERRE,TUILES,2,1,Résidentiel individuel,Moyen
2633E1532360K,2026-06-08,6RFAJ9Y8N865,33274_0840_00020,20 Route de Mondet 33650 Martillac,33650,Martillac,33,maison,avant 1948,,56.4,C,B,160,constructed,-0.550962617435069,44.71318589246242,33274,2,id_rnb,bdnb-bg-WUCQ-D241-XHG5,4.2,164,31.7,1860,MEULIERE,TUILES,1,1,Résidentiel individuel,Fort
2633E1533558M,2026-06-08,FXGY2E485XZS,33063_6390_00012,12 Rue Minvielle 33000 Bordeaux,33000,Bordeaux,33,appartement,avant 1948,,24.9,C,A,175,constructed,-0.571578118698281,44.853177801744295,33063,1,id_rnb,bdnb-bg-BWSQ-YMRZ-MWSQ,13.2,109,4.2,1900,PIERRE,TUILES,3,8,Résidentiel collectif,Moyen
2633E1526163B,2026-06-08,6YZGWRF31TY6,33032_0323_00013,13 Rue de l'Eolienne 33530 Bassens,33530,Bassens,33,appartement,1989-2000,,64.3,C,B,159,constructed,-0.504479416133061,44.90760301173299,33032,2,id_rnb,bdnb-bg-NWXD-KBUN-MQ56,6.6,86,29.6,2000,INDETERMINE,INDETERMINE,2,2,Résidentiel collectif,Fort
2633E1529977T,2026-06-08,VF2BZ24ZK6EF,33227_0995_00005,5 Rue Montaigne 33210 Langon,33210,Langon,33,maison,1948-1974,,80,C,C,108,constructed,-0.254675519925048,44.55002310775353,33227,1,id_rnb,bdnb-bg-FD2F-EL4E-N1NN,2.6,90,25.2,1964,PIERRE,TUILES,1,1,Résidentiel individuel,Moyen
2633E1533604G,2026-06-08,M2VYYMERVF26,33449_shh8zz_00008,8 Rue Yves du Manoir 33160 Saint-Médard-en-Jalles,33160,Saint-Médard-en-Jalles,33,maison,1948-1974,,100,D,B,180,constructed,-0.755349586369918,44.89050203030367,33449,1,id_rnb,bdnb-bg-N7HL-TNR8-YCWY,4.0,140,32.6,1974,BRIQUES,TUILES,1,1,Résidentiel individuel,Moyen
2633E1536334G,2026-06-08,12Q8MR6R35P7,33063_4540_00021,21 Rue Jardel 33100 Bordeaux,33100,Bordeaux,33,appartement,2006-2012,,59.1,D,D,154,constructed,-0.559824572391034,44.84203047967374,33063,13,id_rnb,bdnb-bg-WU9N-T9H6-46VX,18.1,2834,3.9,2009,INDETERMINE,INDETERMINE,5,78,Résidentiel collectif,Moyen
2633E1536217T,2026-06-08,G5R7ZENG2GMM,33318_2942_00069,69 Avenue Roger Chaumet 33600 Pessac,33600,Pessac,33,maison,1948-1974,,79,D,B,187,constructed,-0.639048323228634,44.798569883371684,33318,1,id_rnb,bdnb-bg-N642-FJ5P-VVMG,3.6,78,38.1,1880,BRIQUES,TUILES,1,1,Résidentiel individuel,Fort
2633E1536287L,2026-06-08,PYTJF8DZT1J7,33063_3975_00213,213 Rue Georges Bonnac 33000 Bordeaux,33000,Bordeaux,33,appartement,avant 1948,1900,28.7,E,B,284.1,constructed,-0.591809555778826,44.83814563503523,33063,1,id_rnb,bdnb-bg-LHFM-ML2N-HZ5M,9.2,98,11.4,1900,INDETERMINE,INDETERMINE,3,8,Résidentiel collectif,Fort
2633E1537475D,2026-06-08,A7DX6QQM6Q3H,33550_0800_00067,67 Route de Léognan 33140 Villenave-d'Ornon,33140,Villenave-d'Ornon,33,appartement,2013-2021,2015,41.1,C,C,119,constructed,-0.580365639149448,44.76676894646713,33550,2,id_rnb,bdnb-bg-BXHW-WEPQ-GW76,9.7,841,22.6,2015,INDETERMINE,INDETERMINE,4,30,Résidentiel collectif,Moyen
2633E1528740E,2026-06-08,S741H3V9DZC2,33167_1252,Avenue Paul Lafargue 33270 Floirac,33270,Floirac,33,appartement,avant 1948,,67.5,C,C,93,constructed,-0.53076481033178,44.83097483713158,33167,1,id_rnb,bdnb-bg-LTHV-1STK-1C9V,14.8,121,4.2,,,,,,,Moyen
2633E1538601L,2026-06-08,13KHZ28B8ZJT,33376_0124_00010,10 Allée Cabernet 33160 Saint-Aubin-de-Médoc,33160,Saint-Aubin-de-Médoc,33,maison,2013-2021,2018,69.6,C,C,75,constructed,-0.722352127090453,44.920848562917215,33376,1,id_rnb,bdnb-bg-PECK-RMBP-UYTQ,5.2,72,36.4,2018,BRIQUES,TUILES,2,1,Résidentiel individuel,Moyen
2633E1536876C,2026-06-08,KQQHPQ7Q17FB,33063_0540_00014,14 Quai de Bacalan 33300 Bordeaux,33300,Bordeaux,33,appartement,1989-2000,,20.9,D,B,278,constructed,-0.560719557751898,44.85739684738071,33063,1,id_rnb,bdnb-bg-TGD1-2UY3-FSCM,13.7,327,4.7,1950,INDETERMINE,INDETERMINE,3,20,Résidentiel collectif,Moyen
2633E1536070C,2026-06-08,BWP1SES72EFG,33063_1195_00059,59 Rue de Brach 33000 Bordeaux,33000,Bordeaux,33,maison,avant 1948,,87,D,B,246,constructed,-0.595639090160252,44.83883639774039,33063,2,id_rnb,bdnb-bg-F6FC-GERU-4WJG,5.5,83,12.6,1900,BRIQUES - PIERRE,TUILES,1,1,Résidentiel individuel,Moyen
2633E1528892A,2026-06-08,DR8TNABN6B2P,33069_0450_00009,9 Rue Constant 33110 Le Bouscat,33110,Le Bouscat,33,appartement,2001-2005,2005,76.7,C,C,120,constructed,-0.609737398563396,44.86313516423921,33069,1,id_rnb,bdnb-bg-LPRL-C25A-GWKG,10.7,224,20.9,1968,BETON - BRIQUES,BETON,3,7,Résidentiel collectif,Moyen
2633E1533673X,2026-06-08,DQKY64GD43YY,33281_2250_00012,12 Rue Paul Doumer 33700 Mérignac,33700,Mérignac,33,appartement,1975-1977,1975,22,E,D,301,constructed,-0.614946609232185,44.83043711972367,33281,2,id_rnb,bdnb-bg-SRWS-4PVU-X52A,19.4,404,24.2,1975,BETON,AUTRES,7,112,Résidentiel collectif,Moyen
2633E1531128A,2026-06-08,234BMSA7Y3Y1,33281_0940_00017,17 Rue Fontaine d'Arlac 33700 Mérignac,33700,Mérignac,33,appartement,1983-1988,,31.1,C,A,150,constructed,-0.624869441901242,44.82692877002623,33281,1,id_rnb,bdnb-bg-22PN-BNH9-YJQQ,17.6,726,20.8,1985,BETON,BETON,6,79,Résidentiel collectif,Fort
2633E1526982O,2026-06-08,TQS9JMEC1SCD,33318_0295_00016,16 Rue des As 33600 Pessac,33600,Pessac,33,appartement,1989-2000,1999,33.3,C,A,169,constructed,-0.660670235242912,44.81035807780655,33318,2,id_rnb,bdnb-bg-4KFH-RJHT-BMTR,7.6,447,37.2,2000,BRIQUES,TUILES,3,40,Résidentiel collectif,Fort
2633E1534312M,2026-06-08,5HMFKN1JB5E5,33199_0138,Avenue de Césarée 33470 Gujan-Mestras,33470,Gujan-Mestras,33,appartement,2006-2012,2010,54.1,C,A,136,constructed,-1.072560450304464,44.62349024445113,33199,1,id_rnb,bdnb-bg-4SDY-DDUQ-D9UH,14.1,2337,7.3,2008,INDETERMINE,INDETERMINE,4,124,Résidentiel collectif,
2633E1530912S,2026-06-08,887J1RP39RE7,33063_1l9yo1_00032,32 Rue Marcelin Berthelot 33200 Bordeaux,33200,Bordeaux,33,immeuble,1983-1988,1985,,C,A,141,constructed,-0.61314463907837,44.84431504586955,33063,1,id_rnb,bdnb-bg-CZD9-Q4BZ-ACYQ,17.3,757,18.3,1986,BETON,INDETERMINE,6,55,Résidentiel collectif,Moyen
2633E1536963L,2026-06-08,AZ2YV4SJ2KGR,33236_ir2gl5_00003,3 Rue des Rossignols 33970 Lège-Cap-Ferret,33970,Lège-Cap-Ferret,33,appartement,1989-2000,1989,40.1,C,A,132,constructed,-1.242668547286868,44.65307118464037,33236,2,id_rnb,bdnb-bg-WHMU-ZD7K-D9RK,7.4,195,2.5,1990,INDETERMINE,INDETERMINE,2,6,Résidentiel collectif,
2633E1526351H,2026-06-08,D6XY18RH7251,33293_0012,Route du Bourdieu 33450 Montussan,33450,Montussan,33,appartement,2006-2012,2010,56,C,A,140,constructed,-0.425617226030054,44.88080298931153,33293,1,id_rnb,bdnb-bg-EVL7-AJ9D-YSR5,5.1,274,39.8,2011,INDETERMINE,INDETERMINE,2,66,Résidentiel collectif,Fort
2633E1534225D,2026-06-08,QGJE25DVPDCN,33119_1146_00003,3 Rue Gay-Lussac 33150 Cenon,33150,Cenon,33,maison,avant 1948,,135.6,C,C,130,constructed,-0.506750069624496,44.86216163694526,33119,1,id_rnb,bdnb-bg-MEQ6-BLAM-T5J9,3.1,124,52.4,1955,AGGLOMERE,TUILES,1,1,Résidentiel individuel,Fort
2633E1536762S,2026-06-08,GGBFYX8M3E1T,33063_2470_00030,30 Cité Dasvin de Boismarin 33100 Bordeaux,33100,Bordeaux,33,appartement,avant 1948,,27.9,D,B,216,constructed,-0.546012964240803,44.85081136967245,33063,1,id_rnb,bdnb-bg-B54P-SWBY-4H6S,5.0,112,4.0,1920,MEULIERE,TUILES,2,3,Résidentiel collectif,Moyen
2633E1533960Y,2026-06-08,NFNZNEBY8J2C,33063_4380_00015,15 Rue Henri Rodel 33000 Bordeaux,33000,Bordeaux,33,appartement,avant 1948,,51.8,D,D,201,constructed,-0.576334036301143,44.85082597365719,33063,1,id_rnb,bdnb-bg-DXZN-9H7V-5Q7M,15.0,79,4.8,1900,PIERRE,TUILES,5,4,Résidentiel collectif,Moyen
2633E1532282K,2026-06-08,MYDD5QM6G7SM,33063_8790_00051,51 Rue Surson 33300 Bordeaux,33300,Bordeaux,33,appartement,avant 1948,,58.4,B,A,84,constructed,-0.562479519089873,44.85875712961929,33063,1,id_rnb,bdnb-bg-XQC6-7CFG-7VPW,6.1,229,4.4,2020,INDETERMINE,INDETERMINE,2,4,Résidentiel collectif,Moyen
2633E1532607X,2026-06-08,EYH6PCJ4V52T,33069_0150_00095,95 Rue Ausone 33110 Le Bouscat,33110,Le Bouscat,33,appartement,2006-2012,2011,42.8,C,C,88,constructed,-0.594084684593808,44.87053174279127,33069,1,id_rnb,bdnb-bg-LFR7-M8MN-2DMA,11.7,93,6.8,2011,INDETERMINE,INDETERMINE,4,9,Résidentiel collectif,Fort
2633E1533899P,2026-06-08,TGNBAPDQ2VB3,33550_0533_00001,1 Avenue de la Grande Ile 33140 Villenave-d'Ornon,33140,Villenave-d'Ornon,33,appartement,2013-2021,2018,63.4,C,C,77,constructed,-0.526622503912175,44.77644109348868,33550,1,id_rnb,bdnb-bg-NN5V-13WS-KSNS,7.9,837,5.7,2019,INDETERMINE,INDETERMINE,3,17,Résidentiel collectif,Moyen
2633E1537250M,2026-06-08,GN7GFWDKF184,33461_aiktv7_00003,3 Parichon 33350 Saint-Philippe-d'Aiguilhe,33350,Saint-Philippe-d'Aiguilhe,33,maison,1983-1988,,98.6,E,C,305,constructed,-0.031589125045094,44.908651914200796,33461,1,id_rnb,bdnb-bg-GBSN-P3YE-RC2M,3.0,111,106.0,1988,BRIQUES,TUILES,1,1,Résidentiel individuel,Fort
2633E1532949B,2026-06-08,VV7Z5T5EMPKQ,33075_0210_00010,10 Rue Jean Guerin 33520 Bruges,33520,Bruges,33,maison,1948-1974,1970,83,E,E,287.4,constructed,-0.615267001373243,44.87475782415941,33075,1,id_rnb,bdnb-bg-R3ZJ-1BEG-7DYV,3.5,126,19.0,1933,BOIS - BRIQUES,TUILES,1,1,Résidentiel individuel,Moyen
2633E1530986O,2026-06-08,FBMPBTX759EX,33063_8265_00004,4 Rue Saint-Jean 33800 Bordeaux,33800,Bordeaux,33,immeuble,avant 1948,,,F,C,412,constructed,-0.568223128873624,44.827778096809475,33063,1,id_rnb,bdnb-bg-EPGH-6ZPP-4TAH,8.8,83,12.0,1880,PIERRE,TUILES,2,3,Résidentiel collectif,Moyen
2633E1533804Y,2026-06-08,NNDVM6D92G72,33550_0265_00021,21 Rue Colette Besson 33140 Villenave-d'Ornon,33140,Villenave-d'Ornon,33,appartement,2013-2021,,59.7,C,C,91,constructed,-0.53434249140552,44.7777422162399,33550,1,id_rnb,bdnb-bg-1W16-5H95-MAQ3,10.0,1018,8.2,2014,INDETERMINE,INDETERMINE,4,41,Résidentiel collectif,Moyen
2633E1529009N,2026-06-08,S741H3V9DZC2,33167_1252,Avenue Paul Lafargue 33270 Floirac,33270,Floirac,33,appartement,avant 1948,,68.1,C,C,119,constructed,-0.53076481033178,44.83097483713158,33167,1,id_rnb,bdnb-bg-LTHV-1STK-1C9V,14.8,121,4.2,,,,,,,Moyen
2633E1530638E,2026-06-08,QE1C584KRDW5,33063_5220_00061,61 Rue de Laseppe 33000 Bordeaux,33000,Bordeaux,33,appartement,1978-1982,,31.6,C,B,192,constructed,-0.584509840271928,44.85336912102977,33063,1,id_rnb,bdnb-bg-9NQU-7PFZ-ENVZ,10.1,130,4.0,1800,PIERRE,TUILES,4,12,Résidentiel collectif,Fort
2633E1536153H,2026-06-08,WD9ND1ZK71YT,33539_0025_00005,5 Rue des Cèdres 33870 Vayres,33870,Vayres,33,maison,1948-1974,,124.6,D,D,243,constructed,-0.313595466600744,44.89329922413673,33539,1,id_rnb,bdnb-bg-RD77-D74S-78HE,4.1,127,17.3,1976,BRIQUES,TUILES,2,1,Résidentiel individuel,Moyen
2633E1530354G,2026-06-08,QE1C584KRDW5,33063_5220_00061,61 Rue de Laseppe 33000 Bordeaux,33000,Bordeaux,33,appartement,1978-1982,,22.9,C,B,216,constructed,-0.584509840271928,44.85336912102977,33063,1,id_rnb,bdnb-bg-9NQU-7PFZ-ENVZ,10.1,130,4.0,1800,PIERRE,TUILES,4,12,Résidentiel collectif,Fort
2633E1539036E,2026-06-08,5DT3MXV37442,33063_9255_00025,25 Rue Vergniaud 33000 Bordeaux,33000,Bordeaux,33,appartement,avant 1948,,65,D,B,234,constructed,-0.579577026602436,44.85112430655199,33063,2,id_rnb,bdnb-bg-KCJH-MLJE-FJRE,9.4,200,4.6,1850,PIERRE,TUILES,3,6,Résidentiel collectif,Fort
2633E1532062Y,2026-06-08,XTSMMW5Z6HPA,33040_0095_00001,1 Chemin de l'Embarcadère 33410 Béguey,33410,Béguey,33,maison,avant 1948,1800,153,C,A,111.2,constructed,-0.328014021792861,44.64515559130864,33040,1,id_rnb,bdnb-bg-9TRK-7N5N-CHUD,11.1,164,14.2,1600,MEULIERE,TUILES,2,1,Résidentiel individuel,Fort
2633E1530741D,2026-06-08,9YWNBHMRN1RQ,33522_0995_00007,7 Rue Fenelon 33400 Talence,33400,Talence,33,appartement,1948-1974,,96.7,C,C,106,constructed,-0.597004058653234,44.797675489855195,33522,4,id_rnb,bdnb-bg-FXNT-L7E3-74BY,6.2,135,23.5,,,,,,,Moyen
2633E1532159R,2026-06-08,M714Z3Y44PZA,33550_0035_00031,31 Rue Alfred Nobel 33140 Villenave-d'Ornon,33140,Villenave-d'Ornon,33,immeuble,2006-2012,2008,,C,A,131.1,constructed,-0.582773395995467,44.769393121151865,33550,1,id_rnb,bdnb-bg-G1H8-AC7P-MJRE,11.8,802,20.7,2009,INDETERMINE,INDETERMINE,4,40,Résidentiel collectif,Fort
2633E1538808K,2026-06-08,WMQQ1X7FFFV7,33529_2319_00035,35 Rue du Parc de l'Estey 33260 La Teste-de-Buch,33260,La Teste-de-Buch,33,maison,1978-1982,,85,D,D,223,constructed,-1.131522542565335,44.631858342576265,33529,1,id_rnb,bdnb-bg-TSSH-52F7-A7QR,2.7,156,5.2,1979,BRIQUES,TUILES,1,1,Résidentiel individuel,
2633E1530488K,2026-06-08,QE1C584KRDW5,33063_5220_00061,61 Rue de Laseppe 33000 Bordeaux,33000,Bordeaux,33,appartement,1978-1982,,28.2,D,B,218,constructed,-0.584509840271928,44.85336912102977,33063,1,id_rnb,bdnb-bg-9NQU-7PFZ-ENVZ,10.1,130,4.0,1800,PIERRE,TUILES,4,12,Résidentiel collectif,Fort
2633E1532715B,2026-06-08,CXV9T9ZJSXTC,33214_0749_00002,2 Avenue du Lieutenant Princeteau 33680 Lacanau,33680,Lacanau,33,appartement,1983-1988,,26.3,C,B,194,constructed,-1.201257595464662,45.002573198263505,33214,1,id_rnb,bdnb-bg-KPFX-4YPY-JNZ2,10.7,351,11.2,1985,BETON,INDETERMINE,5,42,Résidentiel collectif,
2633E1538216Q,2026-06-08,AH8FBNFJHF9E,33539_0150_00028,28 Rue du Port 33870 Vayres,33870,Vayres,33,maison,avant 1948,,227.4,C,C,159,constructed,-0.322953655185775,44.9089027594965,33539,1,id_rnb,bdnb-bg-AD89-CR9X-66BV,5.1,286,8.3,1899,PIERRE,TUILES,2,1,Résidentiel individuel,Moyen
2633E1534256I,2026-06-08,3BDSVVP37DWH,33249_0350_00037,37 Rue Georges Vitrac 33310 Lormont,33310,Lormont,33,appartement,avant 1948,,43.7,C,B,171,constructed,-0.522318141651696,44.87852621330456,33249,1,id_rnb,bdnb-bg-T8Z8-7UZU-6W3P,5.9,67,55.3,2016,BRIQUES,TUILES,2,1,Résidentiel individuel,Fort
2633E1537490S,2026-06-08,RT43HQYABA2F,33229_0324_00011,11 Rue des Fauvettes 33138 Lanton,33138,Lanton,33,maison,1983-1988,1984,52.8,E,C,279,constructed,-1.028189500764175,44.70629114852336,33229,1,id_rnb,bdnb-bg-8V4N-BBSW-SEES,2.4,59,8.3,1984,BETON,TUILES,1,1,Résidentiel individuel,
2633E1526433L,2026-06-08,1YDB3H5NTF4Y,33243_0519_00002,2 Esplanade Francois Mitterrand 33500 Libourne,33500,Libourne,33,appartement,avant 1948,1848,107.9,C,A,152.1,constructed,-0.240899885185084,44.91675732395731,33243,2,id_rnb,bdnb-bg-XD7Z-SQ78-X75Q,9.7,232,13.4,1848,INDETERMINE,INDETERMINE,3,2,Résidentiel collectif,Moyen
2633E1529593Z,2026-06-08,58B8S3M53QD2,33281_0280_00047_ter,47ter Avenue du Bedat 33700 Mérignac,33700,Mérignac,33,immeuble,1989-2000,1990,,C,A,137,constructed,-0.645109322386082,44.84999321900716,33281,2,id_rnb,bdnb-bg-L3SN-GDYN-BWSN,8.2,920,40.1,1991,BRIQUES,TUILES,3,42,Résidentiel collectif,Fort
2633E1539048Q,2026-06-08,Q41N149GY9X6,33063_0495_00012,12 Rue Ausone 33000 Bordeaux,33000,Bordeaux,33,appartement,avant 1948,,41.4,E,C,328,constructed,-0.568282055555768,44.83831814671015,33063,1,id_rnb,bdnb-bg-UAPF-Q2ES-PAWV,18.0,177,5.4,1900,PIERRE,TUILES,5,5,Résidentiel collectif,Moyen
2633E1530029T,2026-06-08,QE1C584KRDW5,33063_5220_00061,61 Rue de Laseppe 33000 Bordeaux,33000,Bordeaux,33,appartement,1978-1982,,22.7,D,B,261,constructed,-0.584509840271928,44.85336912102977,33063,1,id_rnb,bdnb-bg-9NQU-7PFZ-ENVZ,10.1,130,4.0,1800,PIERRE,TUILES,4,12,Résidentiel collectif,Fort
2633E1529328U,2026-06-08,G857PX1HRV1K,33075_0098_00010,10 Rue de la Colonne 33520 Bruges,33520,Bruges,33,immeuble,1948-1974,,,E,E,273,constructed,-0.614138987565156,44.87252476605539,33075,1,id_rnb,bdnb-bg-3UT5-JSB2-FGYZ,14.8,362,18.0,1968,BETON - BRIQUES,BETON,5,65,Résidentiel collectif,Moyen
2633E1536058Q,2026-06-08,BEEGK7JMHKEX,33550_2igr62,Résidence Sarcignan 1 33140 Villenave-d'Ornon,33140,Villenave-d'Ornon,33,appartement,1948-1974,,64.1,E,C,303,constructed,-0.577501149170178,44.77656090053146,33550,1,id_rnb,bdnb-bg-5AHN-FJWT-Q5DV,17.3,906,9.5,1962,BETON,BETON,5,400,Résidentiel collectif,Fort
2633E1538521J,2026-06-08,85G3NPAJPD3T,33336_vw7802,Lieu-dit Sable Rouge 33730 Préchac,33730,Préchac,33,maison,1948-1974,,90.8,E,B,257,constructed,-0.356207170629276,44.401996574175286,33336,2,id_rnb,bdnb-bg-ZS9L-GB98-T6K1,5.2,99,53.0,1968,AGGLOMERE - BRIQUES,TUILES,1,2,Résidentiel individuel,Fort
2633E1528491P,2026-06-08,J9GGVX61Z1C6,33273_0226_00001,1 Rue Marcel Issartier 33127 Martignas-sur-Jalle,33127,Martignas-sur-Jalle,33,appartement,2013-2021,,61,C,C,62,constructed,-0.769605029974925,44.83902784422685,33273,1,id_rnb,bdnb-bg-X3QB-6R3M-5UM1,6.6,371,39.3,2020,INDETERMINE,INDETERMINE,3,29,Résidentiel collectif,Moyen
2633E1537912Y,2026-06-08,8JPZPDYX2WKF,33003_0130_00058_ter,58ter Rue de Carbon-Blanc 33440 Ambarès-et-Lagrave,33440,Ambarès-et-Lagrave,33,maison,1975-1977,1975,98.4,B,A,98.8,constructed,-0.492941793440427,44.91784591783319,33003,1,id_rnb,bdnb-bg-ZW2N-YWQG-6G8B,4.3,128,20.6,1982,BETON - BRIQUES,BETON,1,2,Résidentiel individuel,Fort
2633E1531123V,2026-06-08,QHWKHHFTGWV1,33039_0550_00086,86 Rue Chevalier de la Barre 33130 Bègles,33130,Bègles,33,appartement,2006-2012,2011,58.4,C,C,101,constructed,-0.545919052965077,44.803036907000696,33039,4,id_rnb,bdnb-bg-R8ZX-MK9X-9RXY,9.8,858,7.5,2011,INDETERMINE,INDETERMINE,3,58,Résidentiel collectif,Moyen
2633E1528663F,2026-06-08,FS4PMKRFVHKV,33063_4845_00055,55 Rue Jules Guesde 33800 Bordeaux,33800,Bordeaux,33,appartement,avant 1948,,28.9,F,C,374,constructed,-0.564262414570966,44.82926908907274,33063,1,id_rnb,bdnb-bg-C3FH-LDPE-GMHP,10.4,95,9.9,1870,MEULIERE,TUILES,3,3,Résidentiel collectif,Fort
2633E1533460S,2026-06-08,VP1CVVWA9BG9,33281_2269_00001,1 Rue des Perdrix 33700 Mérignac,33700,Mérignac,33,maison,1983-1988,,102,D,B,215,constructed,-0.702556237900143,44.81379529272381,33281,1,id_rnb,bdnb-bg-SJHQ-9Z4X-AP7M,3.4,140,49.5,1986,BRIQUES,TUILES,1,1,Résidentiel individuel,Moyen
2633E1533457P,2026-06-08,FXGY2E485XZS,33063_6390_00012,12 Rue Minvielle 33000 Bordeaux,33000,Bordeaux,33,appartement,avant 1948,,101.7,B,A,76,constructed,-0.571578118698281,44.853177801744295,33063,1,id_rnb,bdnb-bg-BWSQ-YMRZ-MWSQ,13.2,109,4.2,1900,PIERRE,TUILES,3,8,Résidentiel collectif,Moyen
2633E1534203H,2026-06-08,GSQRK98A7EDX,33318_1310_00012,12 Rue Francis Garnier 33600 Pessac,33600,Pessac,33,maison,avant 1948,,87.5,G,F,463,constructed,-0.60731019789824,44.82056412335277,33318,2,id_rnb,bdnb-bg-31JG-EJWN-RJ57,5.8,83,18.0,,,,,,,Moyen
2633E1532619J,2026-06-08,XWNNTHYZ3WSS,33550_0893_00001,1 Rue Louis Braille 33140 Villenave-d'Ornon,33140,Villenave-d'Ornon,33,maison,1948-1974,1965,110,D,D,145,constructed,-0.551565424401139,44.76305942056253,33550,2,id_rnb,bdnb-bg-E6XK-QPS2-PZ62,6.2,82,10.4,1964,BRIQUES - MEULIERE,TUILES,2,1,Résidentiel individuel,Fort
2633E1535108C,2026-06-08,GXY8BAY25Q4V,33039_1330_00013,13 Rue Louis Denis Mallet 33130 Bègles,33130,Bègles,33,appartement,2013-2021,2015,41.8,C,C,78,constructed,-0.563304658303922,44.78487790740539,33039,1,id_rnb,bdnb-bg-NUS4-T5GJ-SE81,16.7,1203,7.1,2015,INDETERMINE,INDETERMINE,6,78,Résidentiel collectif,Moyen
2633E1530168C,2026-06-08,QE1C584KRDW5,33063_5220_00061,61 Rue de Laseppe 33000 Bordeaux,33000,Bordeaux,33,appartement,1948-1974,,22.7,C,A,138,constructed,-0.584509840271928,44.85336912102977,33063,1,id_rnb,bdnb-bg-9NQU-7PFZ-ENVZ,10.1,130,4.0,1800,PIERRE,TUILES,4,12,Résidentiel collectif,Fort
2633E1534039Z,2026-06-08,Q52F3N79CX1Q,33236_1135_00022,22 Avenue du Monument Salins 33970 Lège-Cap-Ferret,33970,Lège-Cap-Ferret,33,maison,après 2021,,240,B,A,108,constructed,-1.245509461973095,44.652239821741716,33236,1,id_rnb,bdnb-bg-AR81-VK5H-7V3Q,5.4,82,3.9,1960,BRIQUES,TUILES,2,1,Résidentiel individuel,
2633E1537096O,2026-06-08,SWKC7MYVTWZ6,33205_oa8ueh_00396,396 Route du Rude 33720 Illats,33720,Illats,33,maison,avant 1948,,65,C,B,178,constructed,-0.366629951003969,44.59807962613715,33205,2,id_rnb,bdnb-bg-ZURB-RZQA-9223,5.6,127,18.8,1850,MEULIERE - PIERRE,TUILES,1,3,Résidentiel individuel,Fort
2633E1528069J,2026-06-08,TPETJHC6JZ5N,33366_0943_00080,80 Route de Salignac 33240 Saint-André-de-Cubzac,33240,Saint-André-de-Cubzac,33,appartement,2001-2005,,43,C,A,158,constructed,-0.42844532589988,45.00205935025967,33366,1,id_rnb,bdnb-bg-YD17-TZZ5-1CLB,6.8,207,44.2,2004,PIERRE,TUILES,2,86,Résidentiel collectif,Fort
2633E1534526S,2026-06-08,4DJE19TYB7HX,33063_7280_00004,4 Rue Pierre de Coubertin 33000 Bordeaux,33000,Bordeaux,33,immeuble,avant 1948,,,D,D,190,constructed,-0.571650006207823,44.83581111653433,33063,1,id_rnb,bdnb-bg-4S8C-DNDJ-C4TA,15.6,113,10.9,1889,PIERRE,ARDOISES - TUILES,4,5,Résidentiel collectif,Fort
2633E1531413Z,2026-06-08,4ZJT43R8QFSR,33063_7240_00058,58 Rue Peyronnet 33800 Bordeaux,33800,Bordeaux,33,appartement,avant 1948,,29.2,D,B,220,constructed,-0.560503583774859,44.828347751578036,33063,1,id_rnb,bdnb-bg-5E4P-PKD4-LJ8Y,13.5,78,5.5,1830,PIERRE,TUILES,4,5,Résidentiel collectif,Fort
2633E1526609F,2026-06-08,M5W3B9D2KMD2,33069_0sqep7_00135,135 Avenue de la Libération Charles de Gaulle 33110 Le Bouscat,33110,Le Bouscat,33,appartement,2013-2021,2017,60,C,C,103,constructed,-0.598907408934708,44.85986477639741,33069,1,id_rnb,bdnb-bg-DKE5-YTDJ-4Z1G,10.1,141,13.4,2018,INDETERMINE,INDETERMINE,3,5,Résidentiel collectif,Moyen
2633E1531384W,2026-06-08,58B8S3M53QD2,33281_0280_00047_ter,47ter Avenue du Bedat 33700 Mérignac,33700,Mérignac,33,appartement,1989-2000,,46.2,D,B,192,constructed,-0.645109322386082,44.84999321900716,33281,2,id_rnb,bdnb-bg-L3SN-GDYN-BWSN,8.2,920,40.1,1991,BRIQUES,TUILES,3,42,Résidentiel collectif,Fort
2633E1530325D,2026-06-08,6Z26NPBQ113A,33119_0312_00032,32 Rue Clément Ader 33150 Cenon,33150,Cenon,33,appartement,2013-2021,2017,77.6,B,B,50.7,constructed,-0.50869448708457,44.856096776667414,33119,1,id_rnb,bdnb-bg-DGCP-Q7L4-BAZU,12.0,973,57.8,2019,INDETERMINE,INDETERMINE,3,41,Résidentiel collectif,Moyen
2633E1532370U,2026-06-08,XNBNS8WKFWGQ,33522_1745_00004,4 Rue Marc Sangnier 33400 Talence,33400,Talence,33,appartement,1989-2000,1990,22.2,C,A,144,constructed,-0.601105213092805,44.808028608821985,33522,1,id_rnb,bdnb-bg-4XEA-HHEY-UXJ9,11.1,468,17.8,1990,AGGLOMERE,BETON,4,49,Résidentiel collectif,Moyen
2633E1537143J,2026-06-08,86PTSQQ35NGF,33529_1745_00032,32 Rue Lagrua 33260 La Teste-de-Buch,33260,La Teste-de-Buch,33,maison,1948-1974,,106.5,C,A,149,constructed,-1.154102710988221,44.6390880062191,33529,1,id_rnb,bdnb-bg-4AUQ-PCQU-NV2H,2.3,113,2.6,1965,BRIQUES,TUILES,1,1,Résidentiel individuel,Moyen
2633E1530203L,2026-06-08,SYK1DEVEE5SY,33529_3fzpj7_00012,12 Le Pujeau du Large 33260 La Teste-de-Buch,33260,La Teste-de-Buch,33,maison,1948-1974,,56.4,D,B,237,constructed,-1.135920261181992,44.642320374053426,33529,1,id_rnb,bdnb-bg-S71X-HXSY-DHTJ,5.6,38,1.5,1970,INDETERMINE,INDETERMINE,2,37,Résidentiel individuel,Moyen
2633E1536981D,2026-06-08,5MEXVTMQ1Y1G,33366_0381_00010,10 Chemin du Granger 33240 Saint-André-de-Cubzac,33240,Saint-André-de-Cubzac,33,maison,2001-2005,,96.4,C,A,126,constructed,-0.43515267873229,45.00062108062441,33366,1,id_rnb,bdnb-bg-U12P-Q7H4-3FKM,4.5,127,48.1,2002,BRIQUES,TUILES,1,1,Résidentiel individuel,Fort
2633E1528175L,2026-06-08,G857PX1HRV1K,33075_0098_00010,10 Rue de la Colonne 33520 Bruges,33520,Bruges,33,immeuble,1948-1974,,,E,D,259,constructed,-0.614138987565156,44.87252476605539,33075,1,id_rnb,bdnb-bg-3UT5-JSB2-FGYZ,14.8,362,18.0,1968,BETON - BRIQUES,BETON,5,65,Résidentiel collectif,Moyen
2633E1532011Z,2026-06-08,6RFAJ9Y8N865,33274_0840_00020,20 Route de Mondet 33650 Martillac,33650,Martillac,33,maison,avant 1948,,75.3,C,A,150,constructed,-0.550962617435069,44.71318589246242,33274,2,id_rnb,bdnb-bg-WUCQ-D241-XHG5,4.2,164,31.7,1860,MEULIERE,TUILES,1,1,Résidentiel individuel,Fort
2633E1536125F,2026-06-08,A319VK6AQM85,33199_vtt5jk_00004,4 Rue Jules Ferry 33470 Gujan-Mestras,33470,Gujan-Mestras,33,maison,2013-2021,2021,195,A,A,37,constructed,-1.101312231550921,44.63635977102328,33199,2,id_rnb,bdnb-bg-XRMT-N1TZ-2PA6,3.6,156,5.3,1934,BRIQUES,TUILES,1,1,Résidentiel individuel,
2633E1536937L,2026-06-08,7B12PFGF7JYM,33192_5848_00030,30 Cours du Général de Gaulle 33170 Gradignan,33170,Gradignan,33,appartement,2006-2012,2009,58.9,C,A,157,constructed,-0.60554302446024,44.78495212487275,33192,1,id_rnb,bdnb-bg-QBRC-HG4G-V9Z6,11.7,253,35.2,2009,INDETERMINE,INDETERMINE,4,28,Résidentiel collectif,Moyen
2633E1536975X,2026-06-08,HYRADHNXYTDR,33281_2422_00040,40 Rue du Pradinat 33700 Mérignac,33700,Mérignac,33,maison,2013-2021,,66.6,C,C,92,constructed,-0.699196250664747,44.81571514526494,33281,3,id_rnb,bdnb-bg-AQWQ-GD64-M4YM,7.4,92,49.0,2020,BRIQUES,TUILES,2,73,Résidentiel individuel,Moyen
2633E1530415P,2026-06-08,QE1C584KRDW5,33063_5220_00061,61 Rue de Laseppe 33000 Bordeaux,33000,Bordeaux,33,appartement,1978-1982,,22.1,C,A,159,constructed,-0.584509840271928,44.85336912102977,33063,1,id_rnb,bdnb-bg-9NQU-7PFZ-ENVZ,10.1,130,4.0,1800,PIERRE,TUILES,4,12,Résidentiel collectif,Fort
2633E1523513D,2026-06-07,6PM6HAJ1FPQ3,33013_0258_00016,16 Avenue du Périgord 33370 Artigues-près-Bordeaux,33370,Artigues-près-Bordeaux,33,appartement,2013-2021,,43.3,C,C,108,constructed,-0.47552140930737,44.865768468821855,33013,1,id_rnb,bdnb-bg-N4LD-4EYG-FQ6A,6.8,1021,66.0,2015,INDETERMINE,INDETERMINE,3,34,Résidentiel collectif,Fort
2633E1524237Z,2026-06-07,QSC359CE3R8V,33063_7735_00112,112 Rue Quintin 33000 Bordeaux,33000,Bordeaux,33,appartement,1948-1974,1972,21.1,D,B,237,constructed,-0.599249107879178,44.82326417889932,33063,1,id_rnb,bdnb-bg-NBWF-JAK7-RV8L,15.8,173,20.8,1972,INDETERMINE,INDETERMINE,6,24,Résidentiel collectif,Moyen
2633E1523516G,2026-06-07,CJ7PJMDNKF85,33192_6113_00014,14 Allée de Guyenne 33170 Gradignan,33170,Gradignan,33,maison,1948-1974,,90.5,D,C,187,constructed,-0.604130521574027,44.77400203810784,33192,1,id_rnb,bdnb-bg-TYMF-12KK-FQ5M,3.8,111,21.0,1971,BRIQUES,TUILES,1,1,Résidentiel individuel,Fort
2633E1525000I,2026-06-07,EZY2126S7PV6,33063_8390_00227,227 Rue Sainte-Catherine 33000 Bordeaux,33000,Bordeaux,33,appartement,avant 1948,,76.4,E,E,282,constructed,-0.573315259146916,44.833070332765615,33063,3,id_rnb,bdnb-bg-EP6Y-W6TT-T6FC,17.8,269,13.4,1880,BRIQUES - PIERRE,TUILES,4,8,Résidentiel collectif,Fort
2633E1523873Z,2026-06-07,D4JF53SP7EZJ,33140_0078_00009_bis,9bis Rue Bauduc 33670 Créon,33670,Créon,33,maison,2013-2021,,86.6,A,A,69,constructed,-0.345198874963162,44.77125029702732,33140,2,id_rnb,bdnb-bg-3UKT-VX6G-76WU,4.8,253,105.3,2017,BRIQUES,TUILES,1,2,Résidentiel individuel,Moyen
2633E1524535L,2026-06-07,EREARTSAVWYE,33200_0509_00023,23 Rue du Hapchot 33185 Le Haillan,33185,Le Haillan,33,maison,1983-1988,1986,95.9,D,B,182,constructed,-0.685126270569936,44.88915276644936,33200,1,id_rnb,bdnb-bg-A4VT-SKA7-156D,2.8,139,14.9,1986,BRIQUES,TUILES,1,1,Résidentiel individuel,Fort
2633E1525542E,2026-06-07,FYDS3CV3K62R,33554_0508_00157,157 Avenue du Périgord 33370 Yvrac,33370,Yvrac,33,maison,1978-1982,,127.2,D,D,193,constructed,-0.458159332059139,44.86501478202065,33554,2,id_rnb,bdnb-bg-U3LK-9NHS-Y6J3,4.4,146,83.6,1980,BRIQUES,TUILES,1,1,Résidentiel individuel,Fort
2633E1523833L,2026-06-07,JP59YWWNSDCY,33201_a011_00084,84 Lotissement Chanteloup 33550 Haux,33550,Haux,33,maison,2001-2005,,98.1,C,A,140,constructed,-0.356158223675331,44.736790133747206,33201,1,id_rnb,bdnb-bg-UG2W-29Z1-1U7R,3.2,115,89.7,2006,BRIQUES,TUILES,1,1,Résidentiel individuel,Fort
2633E1523295T,2026-06-07,YA7BG23VGVST,33227_0793_00011,11 Rue Lafargue 33210 Langon,33210,Langon,33,appartement,avant 1948,,19,D,B,250,constructed,-0.246185252350424,44.55565720122512,33227,2,id_rnb,bdnb-bg-PBSN-VEY2-B52H,10.4,78,13.1,1794,INDETERMINE,INDETERMINE,3,5,Résidentiel collectif,Fort
2633E1523928C,2026-06-07,46M4CK427HPB,33140_0862_00001,1 Chemin de la Scierie 33670 Créon,33670,Créon,33,maison,2006-2012,,73.4,C,B,158,constructed,-0.348888555835725,44.77690310271234,33140,1,id_rnb,bdnb-bg-C7TY-2JXA-1DUM,4.4,103,101.7,2010,BRIQUES,TUILES,1,1,Résidentiel individuel,Moyen
2633E1524066K,2026-06-07,7CANQ17X9XDZ,33069_0sqep7_00265,265 Avenue de la Libération Charles de Gaulle 33110 Le Bouscat,33110,Le Bouscat,33,appartement,2013-2021,2019,43.3,C,C,100,constructed,-0.604971685438518,44.86597638355888,33069,14,id_rnb,bdnb-bg-G1XC-GCCE-P313,12.6,3035,14.5,2019,INDETERMINE,INDETERMINE,9,62,Résidentiel collectif,Moyen
2633E1523442K,2026-06-07,BJFPRJJWV1Y6,33063_6440_00018,18 Rue Monadey 33800 Bordeaux,33800,Bordeaux,33,appartement,1989-2000,1990,16.2,C,A,192,constructed,-0.571278413796825,44.82871981495263,33063,1,id_rnb,bdnb-bg-26ZY-RJHH-HDUX,13.9,159,13.7,1990,INDETERMINE,INDETERMINE,4,22,Résidentiel collectif,Moyen
2633E1523369P,2026-06-07,4V9X7DF7XCW6,33200_0507_00017_d,17D Rue des Graves 33185 Le Haillan,33185,Le Haillan,33,maison,2006-2012,,163.8,B,A,80,constructed,-0.674658482070614,44.88003552233423,33200,2,id_rnb,bdnb-bg-BZTL-FRYW-AZ5F,3.8,340,29.2,2012,BOIS,TUILES,1,1,Résidentiel individuel,Fort
2633E1525389H,2026-06-07,XW2X97FKFFBG,33274_0240_00034,34 Chemin Castaing 33650 Martillac,33650,Martillac,33,maison,avant 1948,,78.4,D,D,219,constructed,-0.540476980789379,44.73312793059285,33274,1,id_rnb,bdnb-bg-FAVY-3GGM-JQZL,3.3,123,15.5,2003,BRIQUES,TUILES,1,1,Résidentiel individuel,Moyen
2633E1523436E,2026-06-07,B2BG3R47E3FR,33063_0745_00082,82 Rue de la Bechade 33000 Bordeaux,33000,Bordeaux,33,appartement,1978-1982,,36.8,D,B,187,constructed,-0.598802972039511,44.824097276141046,33063,2,id_rnb,bdnb-bg-H41W-NSGY-YVFW,7.8,615,20.9,1998,INDETERMINE,INDETERMINE,3,41,Résidentiel collectif,Moyen
2633E1523688W,2026-06-07,61Q7D7E72VBQ,33293_0192_00029,29 Route de Sampau 33450 Montussan,33450,Montussan,33,appartement,1948-1974,,57.9,E,C,275,constructed,-0.429191752557078,44.87181231292208,33293,1,id_rnb,bdnb-bg-RJKF-UZAY-A41Z,5.0,149,60.1,1972,BRIQUES,TUILES,1,1,Résidentiel individuel,Moyen
2633E1524598W,2026-06-07,DHWXT2BXXYWD,33318_2180_00014,14 Rue du Maréchal Foch 33600 Pessac,33600,Pessac,33,maison,1948-1974,,66,C,A,118,constructed,-0.653821325026263,44.80275971683387,33318,1,id_rnb,bdnb-bg-P4PX-5LCV-F4SJ,5.8,86,48.1,1969,AGGLOMERE - BRIQUES,TUILES,1,1,Résidentiel individuel,Moyen
2633E1523648I,2026-06-07,61Q7D7E72VBQ,33293_0192_00029,29 Route de Sampau 33450 Montussan,33450,Montussan,33,appartement,1948-1974,,59.7,D,B,182,constructed,-0.429191752557078,44.87181231292208,33293,1,id_rnb,bdnb-bg-RJKF-UZAY-A41Z,5.0,149,60.1,1972,BRIQUES,TUILES,1,1,Résidentiel individuel,Moyen
2633E1521808O,2026-06-06,4AMDTSDRGC44,33039_0140_00013,13 Rue Amédée Saint-Germain 33130 Bègles,33130,Bègles,33,maison,avant 1948,,130.3,E,E,228,constructed,-0.555198581150396,44.80873061188123,33039,1,id_rnb,bdnb-bg-6CEZ-N9BR-ZM2Q,4.1,107,8.6,2005,INDETERMINE,INDETERMINE,1,2,Résidentiel collectif,Fort
2633E1522482M,2026-06-06,Q58VB87HFBTB,33063_0520_00004,4 Rue des Ayres 33000 Bordeaux,33000,Bordeaux,33,appartement,avant 1948,,56.5,F,C,416,constructed,-0.5721873867277,44.836778620120484,33063,1,id_rnb,bdnb-bg-W3C9-NQ22-J9XE,17.7,208,9.7,1850,PIERRE,TUILES,5,9,Résidentiel collectif,Moyen
2633E1521962M,2026-06-06,NYK4VMSVTH6P,33063_4040_00024,24 Rue Giner de Los Rios 33800 Bordeaux,33800,Bordeaux,33,appartement,avant 1948,,64.5,D,B,215,constructed,-0.571025736666044,44.82815745076965,33063,2,id_rnb,bdnb-bg-GJGG-TVQW-357V,11.2,126,14.3,1870,PIERRE,TUILES,3,10,Résidentiel collectif,Moyen
2633E1522136E,2026-06-06,PEEANFYC1CFZ,33069_1463_00078,78 Rue du Président Kennedy 33110 Le Bouscat,33110,Le Bouscat,33,appartement,1948-1974,1964,62.3,D,D,160.3,constructed,-0.608199781848491,44.86695299603839,33069,6,id_rnb,bdnb-bg-JK9R-KYBG-Z9WW,15.3,784,19.4,1964,BETON,BETON,8,190,Résidentiel collectif,Moyen
2633E1521880I,2026-06-06,6NH11YDZNGDN,33009_2150_00009,9 Rue Sully Melendes 33120 Arcachon,33120,Arcachon,33,appartement,1948-1974,1961,45.9,D,D,180,constructed,-1.171494649893847,44.66078301396783,33009,1,id_rnb,bdnb-bg-7WKB-74GQ-EQC5,7.4,107,3.9,1961,BRIQUES,TUILES,3,6,Résidentiel collectif,Moyen
2633E1522055B,2026-06-06,38BD5YBVCHSR,33063_4040_00026,26 Rue Giner de Los Rios 33800 Bordeaux,33800,Bordeaux,33,appartement,avant 1948,,59.6,C,A,123,constructed,-0.571015068487135,44.828292072948,33063,1,id_rnb,bdnb-bg-GJGG-TVQW-357V,5.1,136,14.4,1870,PIERRE,TUILES,3,10,Résidentiel collectif,Moyen
2633E1522386U,2026-06-06,1DN9AFRFAQSA,33529_0150_00017,17 Rue André Lesca 33260 La Teste-de-Buch,33260,La Teste-de-Buch,33,maison,1948-1974,1974,117.1,F,E,379,constructed,-1.140949480417238,44.63748474883168,33529,1,id_rnb,bdnb-bg-XD5V-PD6Y-T1NK,4.5,129,2.8,1974,AGGLOMERE - BRIQUES,TUILES,2,1,Résidentiel individuel,Moyen
2633E1522489T,2026-06-06,38BD5YBVCHSR,33063_4040_00026,26 Rue Giner de Los Rios 33800 Bordeaux,33800,Bordeaux,33,appartement,avant 1948,,56.3,E,C,302,constructed,-0.571015068487135,44.828292072948,33063,1,id_rnb,bdnb-bg-GJGG-TVQW-357V,5.1,136,14.4,1870,PIERRE,TUILES,3,10,Résidentiel collectif,Moyen
2633E1522281T,2026-06-06,MR3Z7ER1VPK2,33119_1653_00011,11 Avenue René Cassagne 33150 Cenon,33150,Cenon,33,appartement,2006-2012,,43.9,C,C,107,constructed,-0.514790607321716,44.86246047034432,33119,1,id_rnb,bdnb-bg-H9BZ-95GD-RBV4,8.9,544,58.0,2016,INDETERMINE,INDETERMINE,4,0,Tertiaire & Autres,Fort
2633E1521873B,2026-06-06,38BD5YBVCHSR,33063_4040_00024,24 Rue Giner de Los Rios 33800 Bordeaux,33800,Bordeaux,33,appartement,avant 1948,,51.1,C,B,174,constructed,-0.571015068487135,44.828292072948,33063,1,id_rnb,bdnb-bg-GJGG-TVQW-357V,5.1,136,14.4,1870,PIERRE,TUILES,3,10,Résidentiel collectif,Moyen
2633E1521756O,2026-06-06,XD6125D8HA97,33449_0131_00004,4 Chemin de l'Atelier 33160 Saint-Médard-en-Jalles,33160,Saint-Médard-en-Jalles,33,appartement,2013-2021,2020,42.9,C,C,85,constructed,-0.745369790658613,44.89720433608891,,0,id_rnb,bdnb-bg-F1YC-4UCU-H1LT,5,351,,2019,INDETERMINE,INDETERMINE,3,52,Résidentiel collectif,Fort
2633E1523090W,2026-06-06,WD9ND1ZK71YT,33539_0025_00005,5 Rue des Cèdres 33870 Vayres,33870,Vayres,33,maison,1948-1974,,129.9,D,C,229,constructed,-0.313595466600744,44.89329922413673,33539,1,id_rnb,bdnb-bg-RD77-D74S-78HE,4.1,127,17.3,1976,BRIQUES,TUILES,2,1,Résidentiel individuel,Moyen
2633E1522919H,2026-06-06,A8HGNKQ6SAC9,33298_0094_00800,800 Route du Stade 33420 Moulon,33420,Moulon,33,maison,1948-1974,,106.4,D,D,246,constructed,-0.214801048002373,44.84110972131749,33298,2,id_rnb,bdnb-bg-1ECD-1E2B-N294,4.1,105,14.9,1971,BRIQUES,TUILES,1,1,Résidentiel individuel,Fort
2633E1522116K,2026-06-06,VXYH5CNNEXTN,33357_lqkkso_00037,37 Route du Brion 33210 Roaillan,33210,Roaillan,33,maison,1989-2000,,75.1,C,A,150,constructed,-0.268739496254421,44.510606894436066,33357,4,id_rnb,bdnb-bg-7VCX-6983-NCNE,2.8,301,37.6,,INDETERMINE,INDETERMINE,1,0,Tertiaire & Autres,Fort
2633E1522554G,2026-06-06,EHW25WNB1HFE,33063_2390_00078,78 Rue de la Croix Blanche 33000 Bordeaux,33000,Bordeaux,33,appartement,avant 1948,,84.9,D,D,195,constructed,-0.592002270312338,44.845016710867434,33063,1,id_rnb,bdnb-bg-MMZZ-LBMC-YF1P,13.4,143,12.2,1870,PIERRE,TUILES,4,4,Résidentiel collectif,Fort
2633E1521394Q,2026-06-06,QXH8CB5ZJEE8,33366_0200_00010,10 Rue Coureau 33240 Saint-André-de-Cubzac,33240,Saint-André-de-Cubzac,33,appartement,avant 1948,,60.3,D,B,203,constructed,-0.448370033306919,44.993331662229686,33366,1,id_rnb,bdnb-bg-T3X9-UBFF-QZAQ,7.7,126,35.2,1800,INDETERMINE,INDETERMINE,1,3,Résidentiel collectif,Fort
2633E1521937N,2026-06-06,NYK4VMSVTH6P,33063_4040_00024,24 Rue Giner de Los Rios 33800 Bordeaux,33800,Bordeaux,33,appartement,avant 1948,,40.5,D,B,198,constructed,-0.571025736666044,44.82815745076965,33063,2,id_rnb,bdnb-bg-GJGG-TVQW-357V,11.2,126,14.3,1870,PIERRE,TUILES,3,10,Résidentiel collectif,Moyen
2633E1522691N,2026-06-06,SA87GEBQMHQ1,33039_0340_00004,4 Chemin Bonnevie 33130 Bègles,33130,Bègles,33,maison,avant 1948,,404,D,D,241,constructed,-0.558160342487482,44.797246709930825,33039,1,id_rnb,bdnb-bg-87RH-L581-K61V,6.6,371,8.7,1901,PIERRE,TUILES,2,2,Résidentiel collectif,Fort
2633E1521908K,2026-06-06,NGMH6AQW51YV,33167_1xvuh3_00015,15 Lotissement le Clos de la Payssière 33270 Floirac,33270,Floirac,33,maison,2001-2005,,104,D,D,164,constructed,-0.518219071414172,44.83477876400202,33167,1,id_rnb,bdnb-bg-DU6M-GNNM-3MQF,6.8,118,35.7,2006,BRIQUES,TUILES,1,1,Résidentiel individuel,Fort
2633E1522611L,2026-06-06,NYK4VMSVTH6P,33063_4040_00024,24 Rue Giner de Los Rios 33800 Bordeaux,33800,Bordeaux,33,appartement,avant 1948,,51,E,C,311,constructed,-0.571025736666044,44.82815745076965,33063,2,id_rnb,bdnb-bg-GJGG-TVQW-357V,11.2,126,14.3,1870,PIERRE,TUILES,3,10,Résidentiel collectif,Moyen
2633E1522390Y,2026-06-06,JP9AZZNZ7M6V,33003_0091_00021,21 Chemin de Brechet 33440 Ambarès-et-Lagrave,33440,Ambarès-et-Lagrave,33,maison,2006-2012,,106.1,C,A,123,constructed,-0.504424693619486,44.95399183296021,33003,1,id_rnb,bdnb-bg-YFHT-LKJQ-HCPM,3.0,145,7.1,2008,BRIQUES,TUILES,1,1,Résidentiel individuel,Moyen
2633E1522501F,2026-06-06,38BD5YBVCHSR,33063_4040_00026,26 Rue Giner de Los Rios 33800 Bordeaux,33800,Bordeaux,33,appartement,avant 1948,,48.3,G,C,459,constructed,-0.571015068487135,44.828292072948,33063,1,id_rnb,bdnb-bg-GJGG-TVQW-357V,5.1,136,14.4,1870,PIERRE,TUILES,3,10,Résidentiel collectif,Moyen
2633E1521893V,2026-06-06,38BD5YBVCHSR,33063_4040_00026,26 Rue Giner de Los Rios 33800 Bordeaux,33800,Bordeaux,33,appartement,avant 1948,,56.8,E,B,266,constructed,-0.571015068487135,44.828292072948,33063,1,id_rnb,bdnb-bg-GJGG-TVQW-357V,5.1,136,14.4,1870,PIERRE,TUILES,3,10,Résidentiel collectif,Moyen
2633E1522802U,2026-06-06,JT1E5XKZSPHB,33063_4510_00009,9 Cours de l'Intendance 33000 Bordeaux,33000,Bordeaux,33,appartement,avant 1948,,99.7,C,A,137,constructed,-0.575400488601345,44.84224447855185,33063,1,id_rnb,bdnb-bg-BW97-MQ1Y-5DZA,18.9,124,13.5,1750,PIERRE,TUILES,5,4,Résidentiel collectif,Fort
2633E1522395D,2026-06-06,JBYDSGD8ZESV,33122_0872_00009,9 Allee Bourdalat 33610 Cestas,33610,Cestas,33,maison,1948-1974,,85.3,D,D,230,constructed,-0.707017678499118,44.771416072288034,33122,1,id_rnb,bdnb-bg-HRKK-2PQL-LCT9,3.0,129,52.1,1974,BRIQUES,TUILES,1,1,Résidentiel individuel,Fort
2633E1522925N,2026-06-06,EBCXCQTKC4DQ,33522_0910_00001,1 Rue des Epoux Lesgourgues 33400 Talence,33400,Talence,33,appartement,1989-2000,,18.3,C,A,163,constructed,-0.590246289312004,44.81506308411528,33522,3,id_rnb,bdnb-bg-WTWB-HW8F-SMF2,9.2,808,19.5,1995,INDETERMINE,INDETERMINE,3,75,Résidentiel collectif,Moyen
2633E1521780M,2026-06-06,9K9PWWHHYPC8,33393_0230_00027,27 Route de Paris 33910 Saint-Denis-de-Pile,33910,Saint-Denis-de-Pile,33,appartement,avant 1948,,96.1,C,A,116,constructed,-0.204879410668866,44.99263308564168,33393,1,id_rnb,bdnb-bg-QGHP-31LE-AC1Y,9.0,152,7.9,1900,BRIQUES - PIERRE,ARDOISES - TUILES,2,2,Résidentiel collectif,Moyen
2633E1522655D,2026-06-06,NYK4VMSVTH6P,33063_4040_00024,24 Rue Giner de Los Rios 33800 Bordeaux,33800,Bordeaux,33,appartement,1948-1974,,37.3,E,C,331,constructed,-0.571025736666044,44.82815745076965,33063,2,id_rnb,bdnb-bg-GJGG-TVQW-357V,11.2,126,14.3,1870,PIERRE,TUILES,3,10,Résidentiel collectif,Moyen
2633E1522077X,2026-06-06,SND9X8YDHJQK,33318_2907_00010,10 Rue du Relais 33600 Pessac,33600,Pessac,33,appartement,1948-1974,,27.7,C,C,171,constructed,-0.6084184234776,44.79550259583534,33318,12,id_rnb,bdnb-bg-JGL3-HAJT-3S4D,15.8,3203,29.3,1969,BETON,BETON,9,355,Résidentiel collectif,Fort
2633E1521800G,2026-06-06,A3Y5QSS9GWH1,33039_0510_00032,32 Rue Charles Lamoureux 33130 Bègles,33130,Bègles,33,maison,avant 1948,,118.5,D,D,162,constructed,-0.562034499658403,44.80261299495446,33039,1,id_rnb,bdnb-bg-RP39-FE52-LVXV,4.2,152,11.6,1926,BRIQUES,TUILES,1,1,Résidentiel individuel,Moyen
2633E1521995T,2026-06-06,NYK4VMSVTH6P,33063_4040_00024,24 Rue Giner de Los Rios 33800 Bordeaux,33800,Bordeaux,33,appartement,avant 1948,,52,G,C,480,constructed,-0.571025736666044,44.82815745076965,33063,2,id_rnb,bdnb-bg-GJGG-TVQW-357V,11.2,126,14.3,1870,PIERRE,TUILES,3,10,Résidentiel collectif,Moyen
2633E1522079Z,2026-06-06,V1796C4K85V2,33058_0288_00004,4 Sentier du Monteil 33390 Blaye,33390,Blaye,33,appartement,2006-2012,2006,52.5,C,A,129,constructed,-0.652550410164277,45.130294518212224,33058,2,id_rnb,bdnb-bg-NDAU-PMLH-89NL,5.6,499,29.3,2006,BETON,TUILES,3,60,Résidentiel collectif,Fort
2633E1522703Z,2026-06-06,DBYWDRXY8N2Q,33075_0218_00007,7 Rue Jeanne Lejeune 33520 Bruges,33520,Bruges,33,maison,1983-1988,,146,D,D,188,constructed,-0.581300128899506,44.87105459503324,33075,1,id_rnb,bdnb-bg-J7MG-7EXZ-8L7N,3.1,134,2.0,1983,BRIQUES,TUILES,2,1,Résidentiel individuel,Moyen
2633E1522531J,2026-06-06,MDQJHHZ13YX3,33063_0745_00094,94 Rue de la Bechade 33000 Bordeaux,33000,Bordeaux,33,appartement,1989-2000,,28.5,C,A,173,constructed,-0.599501435754045,44.82391804374525,33063,2,id_rnb,bdnb-bg-QYYC-EUC7-3C2Q,8.9,683,20.2,1999,INDETERMINE,INDETERMINE,3,37,Résidentiel collectif,Moyen
2633E1520443B,2026-06-05,5N3ME9BVPM9X,33130_0070_00768,768 Rue du Sabla 33210 Coimères,33210,Coimères,33,maison,2013-2021,2020,135,A,A,37,constructed,-0.209992772570456,44.50225963193279,,0,id_rnb,bdnb-bg-PURN-9QU8-SMJE,4.1,116,77.8,,,,,,,Fort
2633E1519397V,2026-06-05,YBAMAHDMC7YT,33080_0496_00064,64 Chemin de Pate 33140 Cadaujac,33140,Cadaujac,33,appartement,2013-2021,,46.6,C,C,71,constructed,-0.520179086097552,44.72735393797571,33080,1,id_rnb,bdnb-bg-RUQG-3P35-V69G,7.9,459,10.0,2019,BRIQUES,TUILES,2,28,Résidentiel collectif,Moyen
2633E1512410C,2026-06-05,K12XB7CD417G,33063_6875_00117,117 Rue du Palais Gallien 33000 Bordeaux,33000,Bordeaux,33,immeuble,avant 1948,,,E,E,263,constructed,-0.582030304301918,44.84542139431757,33063,1,id_rnb,bdnb-bg-UAW7-R67L-B6KS,14.8,250,9.9,1800,INDETERMINE,INDETERMINE,5,6,Résidentiel collectif,Moyen
2633E1517126M,2026-06-05,J9TGT4BNQAMK,33063_8965_00044,44 Rue de Tivoli 33000 Bordeaux,33000,Bordeaux,33,appartement,1975-1977,1976,29.9,D,D,242,constructed,-0.590137239867413,44.85491590304998,33063,3,id_rnb,bdnb-bg-RPS8-VEJK-QH19,19.1,1282,11.3,1976,PIERRE,BETON,6,115,Résidentiel collectif,Moyen
2633E1514116S,2026-06-05,FP6CB7S3M1P8,33032_0439_00014,14 Rue Lafontaine 33530 Bassens,33530,Bassens,33,maison,2013-2021,,81,B,B,47,constructed,-0.509468279603607,44.90407514999998,33032,1,id_rnb,bdnb-bg-13G9-VUF1-RS9Y,4.8,61,26.1,2017,BRIQUES,TUILES,2,1,Résidentiel individuel,Fort
2633E1512914M,2026-06-05,AW99H34VW32G,33355_uozrze_00330,330 Chemin de Ruan 33410 Rions,33410,Rions,33,maison,avant 1948,,58,E,C,310,constructed,-0.329749084508784,44.662288928739166,33355,3,id_rnb,bdnb-bg-WP77-RXNK-SWPQ,6.9,84,77.1,1850,PIERRE,TUILES,2,1,Résidentiel individuel,Fort
2633E1514457V,2026-06-05,RJDR974BBZRJ,33063_ndkh37_00492,492 Avenue du Maréchal de Lattre de Tassigny 33200 Bordeaux,33200,Bordeaux,33,maison,avant 1948,,57.5,C,A,130,constructed,-0.634090619939521,44.85995038882565,33063,2,id_rnb,bdnb-bg-LHXY-P2UR-1911,3.7,127,35.1,1900,INDETERMINE,INDETERMINE,1,3,Résidentiel collectif,Moyen
2633E1509943F,2026-06-05,V1796C4K85V2,33058_0288_00004,4 Sentier du Monteil 33390 Blaye,33390,Blaye,33,appartement,2006-2012,2006,33.3,C,A,160.6,constructed,-0.652550410164277,45.130294518212224,33058,2,id_rnb,bdnb-bg-NDAU-PMLH-89NL,5.6,499,29.3,2006,BETON,TUILES,3,60,Résidentiel collectif,Fort
2633E1515489N,2026-06-05,MNVB2ZN5SB9X,33449_0777_00003,3 Rue Marguerite Yourcenar 33160 Saint-Médard-en-Jalles,33160,Saint-Médard-en-Jalles,33,maison,2013-2021,,91.6,C,C,90,constructed,-0.696939464475365,44.881679552186924,,0,id_rnb,bdnb-bg-MQBW-WFPS-6KHF,5,625,,2020,INDETERMINE,INDETERMINE,2,25,Résidentiel collectif,Fort
2633E1515295B,2026-06-05,QANVGJ933525,33063_0365_00034,34 Cours de l'Argonne 33000 Bordeaux,33000,Bordeaux,33,appartement,avant 1948,,17.1,C,B,216,constructed,-0.573411125684954,44.82933740796474,33063,1,id_rnb,bdnb-bg-3PFT-HJ7Y-5ZQT,12.9,167,14.5,1900,PIERRE,TUILES,4,12,Résidentiel collectif,Moyen
2633E1515583D,2026-06-05,Q39CQ7ZCDWGM,33318_2330_00002,2 Avenue Montaigne 33600 Pessac,33600,Pessac,33,appartement,avant 1948,1926,115,D,D,199.4,constructed,-0.631714062503632,44.801279531428115,33318,1,id_rnb,bdnb-bg-NXFU-DTHR-NL8M,4.2,129,31.1,1926,BRIQUES,TUILES,1,1,Résidentiel individuel,Fort
2633E1517144E,2026-06-05,3F8M5WRP5SDN,33333_0144_00011,11 Avenue de l'Océan 33680 Le Porge,33680,Le Porge,33,maison,1978-1982,1980,116.1,C,A,122,constructed,-1.09769578463104,44.87326859121809,33333,1,id_rnb,bdnb-bg-FX9A-A6C8-KE2D,3.5,133,21.1,1960,BRIQUES,TUILES,1,1,Résidentiel individuel,
2633E1519286O,2026-06-05,QXP83PJSNSPK,33119_0455_00010,10 Côte de l'Empereur 33150 Cenon,33150,Cenon,33,appartement,2013-2021,2016,42.2,C,C,112,constructed,-0.523048316287278,44.8460193684597,33119,2,id_rnb,bdnb-bg-8MPW-G8YE-FEQA,15.9,570,43.7,2016,INDETERMINE,INDETERMINE,6,63,Résidentiel collectif,Fort
2633E1514793T,2026-06-05,8BMQXAM1VFBJ,33063_7105_00268,268 Rue Pelleport 33800 Bordeaux,33800,Bordeaux,33,appartement,avant 1948,,49.8,D,B,211,constructed,-0.569855715562139,44.81980410321507,33063,1,id_rnb,bdnb-bg-A8QL-KC4C-LPWD,6.6,794,14.4,1900,INDETERMINE,INDETERMINE,2,13,Résidentiel collectif,Moyen
2633E1512188O,2026-06-05,YSCSAGZ5VFJB,33063_0320_00022,22 Boulevard Antoine Gautier 33000 Bordeaux,33000,Bordeaux,33,maison,avant 1948,,194.1,D,D,160,constructed,-0.598286821167955,44.83250419608863,33063,1,id_rnb,bdnb-bg-MAP9-HWH2-8XY9,6.3,131,12.2,1900,PIERRE,TUILES,2,1,Résidentiel individuel,Fort
2633E1519633X,2026-06-05,G1XNRXB3AN16,33063_7725,Rue des Queyries 33100 Bordeaux,33100,Bordeaux,33,appartement,2013-2021,2019,99.1,B,A,74.8,constructed,-0.56120815755465,44.8480278,33063,13,id_rnb,bdnb-bg-2TF2-6WZK-CXZW,9.3,13073,4.5,2020,INDETERMINE,INDETERMINE,8,306,Résidentiel collectif,Moyen
2633E1514191P,2026-06-05,1VEQFQSEC7JY,33529_3150_00014,14 Rue Victor Hugo 33260 La Teste-de-Buch,33260,La Teste-de-Buch,33,appartement,2006-2012,,41.6,C,A,123,constructed,-1.146841138611657,44.632896862663316,33529,2,id_rnb,bdnb-bg-CHGG-Z95J-Z85D,16.0,649,3.0,2012,INDETERMINE,INDETERMINE,5,32,Résidentiel collectif,
2633E1513716I,2026-06-05,QT597D1SS2Z9,33537_0039,Chemin de Pilet 33730 Uzeste,33730,Uzeste,33,maison,avant 1948,,129,C,C,177,constructed,-0.320241636535083,44.443743479711515,33537,2,id_rnb,bdnb-bg-Y8F7-3YBX-5V4W,3.2,203,74.5,1800,INDETERMINE,TUILES,2,3,Résidentiel individuel,Fort
2633E1518431R,2026-06-05,VXSSRW5EYC7R,33162_0810_00003,3 Rue Moebius 33320 Eysines,33320,Eysines,33,appartement,2013-2021,,41.9,C,C,89,constructed,-0.658477860247084,44.882594867792946,33162,1,id_rnb,bdnb-bg-VXDY-4MY3-3W9P,10.6,844,23.8,2013,INDETERMINE,INDETERMINE,4,28,Résidentiel collectif,Fort
2633E1518763L,2026-06-05,WCB9AEYDR7EH,33200_0551_00008,8 Rue Jupiter 33185 Le Haillan,33185,Le Haillan,33,maison,2006-2012,,74,C,A,144,constructed,-0.685374297185726,44.87067615722711,33200,3,id_rnb,bdnb-bg-8FJT-FCW8-5186,8.2,250,32.4,2008,AGGLOMERE,TUILES,2,3,Résidentiel individuel,Moyen
2633E1512742W,2026-06-05,7KFAD8AG5QCK,33063_4810_00290,290 Rue Judaïque 33000 Bordeaux,33000,Bordeaux,33,appartement,1978-1982,1982,34.6,D,B,190,constructed,-0.59874433236291,44.84012788501539,33063,2,id_rnb,bdnb-bg-GV5Q-4MSP-UJ1Z,20.6,191,13.8,1982,INDETERMINE,INDETERMINE,7,19,Résidentiel collectif,Fort
2633E1517193B,2026-06-05,3R42HYRGYHY9,33227_0918_00010,10 Rue Marie Curie 33210 Langon,33210,Langon,33,maison,1948-1974,,116.8,D,D,196,constructed,-0.257496604577031,44.53979023959614,33227,1,id_rnb,bdnb-bg-N12V-XBEY-QWE4,3.2,157,30.7,1980,BRIQUES,TUILES,1,1,Résidentiel individuel,Fort
2633E1511891D,2026-06-05,SYGQJ7XQV8GH,33318_0273_00001,1 Rue Armand Calmon 33600 Pessac,33600,Pessac,33,appartement,1948-1974,,63.4,D,D,220,constructed,-0.630755906041933,44.79551535813982,33318,1,id_rnb,bdnb-bg-H3LB-CGD5-QE6M,12.8,203,34.1,1965,AGGLOMERE,BETON,5,40,Résidentiel collectif,Moyen
2633E1519118C,2026-06-05,4FQEY2MVRWBD,33011_0223_00016,16 Rond Point des Esteys 33740 Arès,33740,Arès,33,maison,2006-2012,2011,145.9,A,A,62,constructed,-1.136856501518944,44.776191168566356,33011,1,id_rnb,bdnb-bg-2RNE-27YT-HFC6,3.9,234,7.3,2013,BRIQUES,TUILES,1,1,Résidentiel individuel,
2633E1520885B,2026-06-05,6X4Q16QNCJ97,33214_a038_00001,1 Residence Horizon Marin 33680 Lacanau,33680,Lacanau,33,appartement,1989-2000,1990,24.3,D,B,233,constructed,-1.200510893323882,44.99596979542087,,0,id_rnb,bdnb-bg-WKQA-QKJE-PV9B,8.0,350,13.1,1992,INDETERMINE,INDETERMINE,4,299,Résidentiel collectif,
2633E1518868M,2026-06-05,YRP3VD7VJVY1,33243_0273_00052,52 Chemin du Casse 33500 Libourne,33500,Libourne,33,appartement,2006-2012,2006,20.8,C,A,216,constructed,-0.220924545807632,44.916949506147716,33243,2,id_rnb,bdnb-bg-H6SX-C2SR-4NEW,8.5,244,20.3,2005,AUTRES,TUILES,3,59,Résidentiel collectif,Moyen
2633E1510335H,2026-06-05,Z2S2HR6KC9NY,33422_0007_00025,25 Allee Albert Schweitzer 33127 Saint-Jean-d'Illac,33127,Saint-Jean-d'Illac,33,appartement,2013-2021,2015,62.9,C,C,96,constructed,-0.770988844505931,44.80492995456828,33422,1,id_rnb,bdnb-bg-VYA7-D5G3-7KCW,6.2,326,47.2,2015,INDETERMINE,INDETERMINE,2,7,Résidentiel collectif,Fort
2633E1520375L,2026-06-05,E28HV3Z5HG3X,33063_2708_00059,59 Rue Docteur Finlay 33300 Bordeaux,33300,Bordeaux,33,appartement,2013-2021,2016,20.3,C,A,151,constructed,-0.581211287907371,44.863476373099836,33063,14,id_rnb,bdnb-bg-E5LK-Z48T-W33M,16.9,1548,4.0,2016,INDETERMINE,INDETERMINE,6,0,Tertiaire & Autres,Moyen
2633E1519631V,2026-06-05,E3CPK17RN747,33138_0775_00168,168 Rue Pierre Brossolette 33230 Coutras,33230,Coutras,33,maison,avant 1948,,160,D,D,156,constructed,-0.132330386964159,45.03789210281382,33138,1,id_rnb,bdnb-bg-VD1H-97G5-3MR1,8.2,114,12.7,1870,BOIS - PIERRE,TUILES,2,1,Résidentiel individuel,Moyen
2633E1512146Y,2026-06-05,RQYXFACJXHFV,33281_1217_00005,5 Allée des Geraniums 33700 Mérignac,33700,Mérignac,33,appartement,1948-1974,1960,51.3,D,D,170,constructed,-0.638099168043762,44.814594915573906,33281,8,id_rnb,bdnb-bg-J11U-DU1X-G1ES,14.3,513,26.1,1963,PIERRE,AUTRES,5,101,Résidentiel collectif,Fort
2633E1509819L,2026-06-05,6FGSSX335W5F,33433_0217_00029,29 Chemin de l'Estrille 33450 Saint-Loubès,33450,Saint-Loubès,33,maison,avant 1948,1900,60.3,D,B,205.2,constructed,-0.44463457995071,44.90295734840344,33433,2,id_rnb,bdnb-bg-12PA-VXHX-XQ1D,5.3,107,32.7,1865,BRIQUES - MEULIERE,TUILES,1,1,Résidentiel individuel,Fort
2633E1512004M,2026-06-05,B7WQ3G7DW6PM,33408_9112_00200,200 Allée des Platanes 33670 Saint-Genès-de-Lombaud,33670,Saint-Genès-de-Lombaud,33,maison,avant 1948,,126,E,E,228,constructed,-0.374655957179102,44.757331,33408,1,id_rnb,bdnb-bg-PSTZ-EQRX-ZR6X,5.7,176,89.4,,,,,,,Fort
2633E1514143T,2026-06-05,2R91QVHG4PM5,33069_1660_00318,318 Avenue de Tivoli 33110 Le Bouscat,33110,Le Bouscat,33,maison,avant 1948,,231.2,B,A,74,constructed,-0.598981240522802,44.871015684635374,33069,1,id_rnb,bdnb-bg-GJXQ-6XCG-F2S4,5.7,155,10.2,1986,BRIQUES,TUILES,1,1,Résidentiel individuel,Moyen
2633E1510945T,2026-06-05,B4J8SZHS2FXT,33063_2400_00112,112 Rue Croix de Seguey 33000 Bordeaux,33000,Bordeaux,33,appartement,1948-1974,,58.2,E,E,301,constructed,-0.591806884464674,44.850842449288535,33063,5,id_rnb,bdnb-bg-V7RR-AUHU-5A1J,24.7,951,12.4,,INDETERMINE,INDETERMINE,8,69,Résidentiel collectif,Moyen
2633E1517545P,2026-06-05,4A4DV6CJWRR8,33522_1110_00130,130 Rue Frédéric Sevene 33400 Talence,33400,Talence,33,immeuble,1948-1974,,,D,D,183,constructed,-0.584572566778257,44.80557476309369,33522,1,id_rnb,bdnb-bg-ELPK-R6LG-WUSC,15.7,124,16.5,1972,BRIQUES,BETON,5,12,Résidentiel collectif,Moyen
2633E1517753P,2026-06-05,5GA9SVRPBBB1,33009_1770_00001,1 Rue des Pecheries 33120 Arcachon,33120,Arcachon,33,immeuble,2001-2005,,,C,A,124,constructed,-1.146967493710376,44.65735023529781,33009,2,id_rnb,bdnb-bg-XN2V-SPYD-AHPF,13.7,342,3.0,2008,INDETERMINE,INDETERMINE,4,9,Résidentiel collectif,Moyen
2633E1518958Y,2026-06-05,ZWJ33KDRKPG1,33200_0569_00004_b,4B Rue de Los Héros 33185 Le Haillan,33185,Le Haillan,33,appartement,2013-2021,2013,30.6,C,C,96,constructed,-0.673319088450486,44.87039038061168,33200,1,id_rnb,bdnb-bg-K3EN-HCWR-DH1R,8.1,381,40.3,2013,INDETERMINE,INDETERMINE,4,45,Résidentiel collectif,Moyen
2633E1518972M,2026-06-05,7ZM21545RQ8F,33090_6400_00006,6 allée des jacinthes 33610 Canéjan,33610,Canéjan,33,appartement,2013-2021,2017,44.4,C,C,81,constructed,-0.644102120329174,44.75210309820889,33090,1,id_rnb,bdnb-bg-9VKY-1P6T-T5M7,6.6,1002,47.9,2017,INDETERMINE,INDETERMINE,2,27,Résidentiel collectif,Moyen
2633E1515736A,2026-06-05,D4AN2Y29KKB1,33018_0348_00033,33 Rue du Merlot 33240 Val de Virvée,33240,Val de Virvée,33,maison,2006-2012,,79.9,C,B,162,constructed,-0.376620392326969,45.01431126823428,33018,1,id_rnb,bdnb-bg-ZFVX-2FQP-2X7W,2.8,97,49.6,2010,BRIQUES,TUILES,1,1,Résidentiel individuel,Fort
2633E1519931J,2026-06-05,9HVDZZ9759NV,33063_7535_00001,1 Rue de Preignac 33800 Bordeaux,33800,Bordeaux,33,appartement,avant 1948,,31.5,C,A,153,constructed,-0.569736573168884,44.821447128523154,33063,2,id_rnb,bdnb-bg-8ZUU-LHUH-7QB5,8.9,155,12.2,1874,PIERRE,TUILES,3,5,Résidentiel collectif,Moyen
2633E1518464Y,2026-06-05,RFBQTB5H5PQC,33281_1466_00018,18 Rue Jean Giono 33700 Mérignac,33700,Mérignac,33,appartement,2013-2021,,62.1,B,B,56,constructed,-0.649191240538593,44.85139806267084,33281,1,id_rnb,bdnb-bg-ZB8U-KW6G-SCAU,12.0,692,42.6,2018,INDETERMINE,INDETERMINE,5,78,Résidentiel collectif,Fort
2633E1513857T,2026-06-05,K88CSQD454VC,33162_0107,Rue Charles Péguy 33320 Eysines,33320,Eysines,33,maison,2006-2012,2006,55.5,C,A,123,constructed,-0.629449834395443,44.876948782305185,33162,2,id_rnb,bdnb-bg-NK77-66J6-EPRL,6.8,201,21.3,2006,BETON,TUILES,2,3,Résidentiel individuel,Fort
2633E1509711H,2026-06-05,1D3462FV4BSB,33063_0355_00026,26 Avenue d'Arès 33200 Bordeaux,33200,Bordeaux,33,appartement,avant 1948,,33.7,C,A,153,constructed,-0.600392945756024,44.83628003720684,33063,2,id_rnb,bdnb-bg-94HT-35KB-7X99,6.7,214,13.2,1840,BRIQUES,TUILES,2,7,Résidentiel collectif,Fort
2633E1510385F,2026-06-05,EGKHK41F3GWK,33075_0344_00004,4 Rue du Réduit 33520 Bruges,33520,Bruges,33,appartement,2013-2021,,39.8,B,B,64,constructed,-0.60146361488756,44.88455606002899,33075,1,id_rnb,bdnb-bg-9Y6H-MJ1B-E568,5.4,194,5.0,2001,BRIQUES,TUILES,1,1,Résidentiel individuel,Moyen
2633E1518940G,2026-06-05,X7WQYKD8PJQZ,33063_0365_00016,16 Cours de l'Argonne 33000 Bordeaux,33000,Bordeaux,33,appartement,avant 1948,,40.9,C,A,111,constructed,-0.572946872090801,44.82986102210975,33063,1,id_rnb,bdnb-bg-V9A9-JAWR-V847,11.2,77,14.7,1920,PIERRE,TUILES,3,5,Tertiaire & Autres,Moyen
2633E1520740M,2026-06-05,PTMGZXHKZRA9,33243_0900_00044,44 Avenue Louis Didier 33500 Libourne,33500,Libourne,33,maison,2001-2005,,106,C,B,177,constructed,-0.244774162207702,44.9017998059621,33243,7,id_rnb,bdnb-bg-T4YD-7486-5A13,6.9,660,10.3,2007,AGGLOMERE,TUILES,2,7,Résidentiel individuel,Moyen
2633E1515174K,2026-06-05,W7RDY9PD1BM9,33063_8135_00065,65 Rue des Sablières 33800 Bordeaux,33800,Bordeaux,33,appartement,1983-1988,1983,20.1,C,A,211,constructed,-0.57535905174266,44.82478231288904,33063,1,id_rnb,bdnb-bg-RV21-XXJB-RN1H,13.5,333,14.5,1984,BETON,ARDOISES - BETON,5,33,Résidentiel collectif,Moyen
2633E1510648I,2026-06-05,R4YKDKCDZ268,33522_2450_00085,85 Rue Roustaing 33400 Talence,33400,Talence,33,appartement,1989-2000,,26.1,C,A,138,constructed,-0.591350628237374,44.81771399078927,33522,1,id_rnb,bdnb-bg-G19R-PZAX-5XPS,9.5,320,21.3,1995,INDETERMINE,INDETERMINE,3,20,Résidentiel collectif,Fort
2633E1514948S,2026-06-05,KETVKHWMEB4P,33268_0131_00013,13 Route du Port d'Issan 33460 Margaux-Cantenac,33460,Margaux-Cantenac,33,maison,avant 1948,,151.7,E,E,291,constructed,-0.663739985458079,45.03652157523153,33268,2,id_rnb,bdnb-bg-NL7X-T61S-H3NV,7.3,109,13.0,,INDETERMINE,INDETERMINE,1,0,Dépendance,Fort
2633E1519647L,2026-06-05,P4AM749E44AG,33126_8933if_01750,1750 Route de Cantemerle 33920 Civrac-de-Blaye,33920,Civrac-de-Blaye,33,maison,avant 1948,1880,83.1,C,B,158.9,constructed,-0.452608820816316,45.09699638854728,33126,1,id_rnb,bdnb-bg-2KGN-WS9M-6ES2,3.8,202,25.3,1800,PIERRE,TUILES,2,1,Résidentiel individuel,Fort
2633E1515292Y,2026-06-05,385E5AN7KR43,33063_6005_00088,88 Boulevard Maréchal Leclerc 33000 Bordeaux,33000,Bordeaux,33,appartement,1989-2000,1996,53.2,C,A,138.4,constructed,-0.596006162396374,44.83016879951862,33063,2,id_rnb,bdnb-bg-CRYC-KMED-ZVEV,17.3,3074,10.3,1991,BETON,TUILES,9,277,Résidentiel collectif,Fort
2633E1514166Q,2026-06-05,61NGBH281PPG,33243_0685_00001_bis,1bis Impasse Helene Boucher 33500 Libourne,33500,Libourne,33,appartement,avant 1948,,60.5,C,A,151,constructed,-0.229425623868648,44.90401990084467,33243,2,id_rnb,bdnb-bg-VN3X-ZSAR-GCKY,4.8,84,11.2,1926,MEULIERE,TUILES,2,1,Tertiaire & Autres,Moyen
2633E1511938Y,2026-06-05,8QAQAZV9979P,33063_7040_00021,21 Rue Paul Louis Lande 33000 Bordeaux,33000,Bordeaux,33,appartement,2013-2021,2013,53.1,C,A,111,constructed,-0.576210065102313,44.83436672224881,33063,1,id_rnb,bdnb-bg-PQ4Q-AWP5-5R19,12.7,71,12.0,2016,INDETERMINE,INDETERMINE,5,43,Résidentiel collectif,Fort
2633E1512354Y,2026-06-05,76VPYTZ1GSB4,33318_2780_00010,10 Avenue du Pontet 33600 Pessac,33600,Pessac,33,appartement,1948-1974,1970,14.6,D,D,335,constructed,-0.640587971045234,44.79064490804446,33318,1,id_rnb,bdnb-bg-EEYQ-U9KG-PNP7,14.3,1988,41.9,1970,BETON,BETON,9,300,Résidentiel collectif,Fort
2633E1511080Y,2026-06-05,Z5YZZCBV9G28,33122_2170_00033_bis,33bis Avenue de Verdun 33610 Cestas,33610,Cestas,33,maison,1978-1982,,175.7,A,A,63,constructed,-0.692701027462261,44.778719603929545,,0,id_rnb,bdnb-bg-X5JS-1CHF-EC7L,3.2,154,53.8,2019,BRIQUES,TUILES,1,1,Résidentiel individuel,Moyen
2633E1517272C,2026-06-05,EHTTCT9X4VWN,33154_lz49l6_00729,729 Route des Grands Horruts 33230 Les Églisottes-et-Chalaures,33230,Les Églisottes-et-Chalaures,33,maison,1948-1974,1965,165.5,E,B,280,constructed,-0.049936983930514,45.091796626764655,33154,3,id_rnb,bdnb-bg-7Z7N-SG6G-SMUB,6.1,198,24.0,1968,MEULIERE - PIERRE,TUILES,1,1,Résidentiel individuel,Moyen
2633E1514225X,2026-06-05,BSCT97W3NWKJ,33013_0070_00009,9 Avenue du Duc d'Epernon 33370 Artigues-près-Bordeaux,33370,Artigues-près-Bordeaux,33,maison,1978-1982,,108.1,E,B,255,constructed,-0.495376040864327,44.875188379739114,33013,1,id_rnb,bdnb-bg-KKQW-5N3N-3VBC,4.3,197,60.8,1982,BRIQUES,TUILES,2,1,Résidentiel individuel,Moyen
2633E1511632E,2026-06-05,VQ68P56AC8CT,33005_0218_00056_bis,56bis Avenue des Colonies 33510 Andernos-les-Bains,33510,Andernos-les-Bains,33,maison,2006-2012,2006,153.5,C,B,162,constructed,-1.081985875588965,44.74501422295145,33005,1,id_rnb,bdnb-bg-5VXC-S16K-A6H3,3.6,199,10.2,2006,BRIQUES,TUILES,1,1,Résidentiel individuel,
2633E1518745T,2026-06-05,FXJMDV5P75SE,33393_0231_00010,10 Route du Pas du Loup 33910 Saint-Denis-de-Pile,33910,Saint-Denis-de-Pile,33,maison,1983-1988,,124,D,B,193,constructed,-0.170281603573701,44.9924593588102,33393,1,id_rnb,bdnb-bg-ZDCJ-58MD-QCUX,4.6,121,21.6,1980,BRIQUES,TUILES,1,1,Résidentiel individuel,Moyen
2633E1518324O,2026-06-05,PWDNQJP2BY27,33063_4545_00241,241 Rue du Jardin Public 33300 Bordeaux,33300,Bordeaux,33,maison,1989-2000,,84,C,C,126,constructed,-0.57134820909023,44.859339452109715,33063,3,id_rnb,bdnb-bg-G18Z-SDKD-5T6H,4.5,227,3.7,1999,BRIQUES,TUILES,2,7,Résidentiel individuel,Moyen
2633E1515557D,2026-06-05,Q39CQ7ZCDWGM,33318_2330_00002,2 Avenue Montaigne 33600 Pessac,33600,Pessac,33,appartement,avant 1948,1926,25,E,E,307.1,constructed,-0.631714062503632,44.801279531428115,33318,1,id_rnb,bdnb-bg-NXFU-DTHR-NL8M,4.2,129,31.1,1926,BRIQUES,TUILES,1,1,Résidentiel individuel,Fort
2633E1511402I,2026-06-05,9ZRE6JJ8YKH4,33138_4rxac1_00006,6 Lieu Dit la Bodetterie 33230 Coutras,33230,Coutras,33,maison,1978-1982,,127.8,C,C,120,constructed,-0.118768258066939,45.051653052095865,33138,1,id_rnb,bdnb-bg-3F9N-6SF4-2ME2,3.2,119,17.2,1979,BRIQUES,TUILES,1,1,Résidentiel individuel,Moyen
2633E1511159Z,2026-06-05,JJ26FR4Q5P3Y,33063_1986_00003,3 Allée des Charrettes 33800 Bordeaux,33800,Bordeaux,33,appartement,2013-2021,,48,B,A,93,constructed,-0.545033739142858,44.82257274296266,,0,id_rnb,bdnb-bg-MNBW-KZST-SCEQ,5,767,,2020,INDETERMINE,INDETERMINE,10,183,Résidentiel collectif,Moyen
2633E1514477P,2026-06-05,CEPMCYPRBQ8M,33096_0454_00021,21 Rue Jack London 33560 Carbon-Blanc,33560,Carbon-Blanc,33,maison,1948-1974,,124.9,C,A,136,constructed,-0.501525604686323,44.90351318745759,33096,1,id_rnb,bdnb-bg-HRYY-6GHW-KVVF,3.4,152,24.0,1972,AUTRES,TUILES,1,1,Résidentiel individuel,Fort
2633E1513315X,2026-06-05,W7V4KFHSYQCV,33254_zgwcd6_00327,327 Route de la Picharde 33190 Loupiac-de-la-Réole,33190,Loupiac-de-la-Réole,33,maison,avant 1948,,205,B,A,77,constructed,-0.044609803992377,44.544505602457775,33254,2,id_rnb,bdnb-bg-TQSM-HQ58-BQC4,7.1,158,54.6,2005,PIERRE,TUILES,2,1,Résidentiel individuel,Moyen
2633E1517072K,2026-06-05,FWYX641E63NB,33192_9300_00008,8 Allée des Salamandres 33170 Gradignan,33170,Gradignan,33,maison,2006-2012,2008,171.3,C,A,124,constructed,-0.640650104897467,44.766048952745095,33192,1,id_rnb,bdnb-bg-X2GH-THTF-BH5R,2.9,303,37.7,2011,BOIS,TUILES,1,1,Résidentiel individuel,Fort
2633E1534005R,2026-06-08,8E6GVZWPJF8N,33063_8690_00018,18 Rue du Soleil 33000 Bordeaux,33000,Bordeaux,33,appartement,avant 1948,,19.9,D,B,285,constructed,-0.568244939651321,44.836232243457445,33063,1,adresse_ban,bdnb-bg-EG15-UMK3-KPP2,13.9,57,10.4,1800,PIERRE,TUILES,5,9,Résidentiel collectif,Moyen
2633E1537977L,2026-06-08,8MAQX5BB5Y5N,33063_4415_00007,7 Rue Hippolyte Minier 33800 Bordeaux,33800,Bordeaux,33,maison,avant 1948,1900,69,C,C,128.3,constructed,-0.568273211448217,44.824364836812954,33063,1,adresse_ban,bdnb-bg-SB69-3TPR-RR5X,5.0,85,11.8,1880,BRIQUES - PIERRE,TUILES - ZINC ALUMINIUM,1,1,Résidentiel individuel,Moyen
2633E1536160O,2026-06-08,DSGKQHK1A43C,33450_0015_01584,1584 Route de Bazas 33840 Saint-Michel-de-Castelnau,33840,Saint-Michel-de-Castelnau,33,maison,avant 1948,,150,E,E,282,constructed,-0.127716406917295,44.28889093793023,33450,2,adresse_ban,bdnb-bg-PQJF-YLZF-GRP1,4.5,451,96.6,1880,MEULIERE,TUILES,1,1,Résidentiel individuel,Moyen
2633E1530093F,2026-06-08,QE1C584KRDW5,33063_5220_00061,61 Rue de Laseppe 33000 Bordeaux,33000,Bordeaux,33,appartement,1978-1982,,22.9,C,A,166,constructed,-0.584509840271928,44.85336912102977,33063,1,adresse_ban,bdnb-bg-9NQU-7PFZ-ENVZ,10.1,130,4.0,1800,PIERRE,TUILES,4,12,Résidentiel collectif,Fort
2633E1527314I,2026-06-08,76RFGD3A8S5V,33281_2191_00007,7 Rue des Olympiades 33700 Mérignac,33700,Mérignac,33,appartement,1975-1977,,43.8,C,A,154,constructed,-0.649363696865049,44.84871495927321,33281,1,adresse_ban,bdnb-bg-HK9D-FEUP-R3VA,29.2,552,43.0,1979,BETON,BETON,11,63,Résidentiel collectif,Fort
2633E1532071H,2026-06-08,CKCHX2N5VW8G,33039_1200_00009,9 Rue Jules Verne 33130 Bègles,33130,Bègles,33,maison,avant 1948,,90,D,B,220,constructed,-0.572775587177376,44.81057372065902,33039,1,adresse_ban,bdnb-bg-CRS3-86WJ-V5FV,4.7,73,9.2,1924,BETON - PIERRE,TUILES - ZINC ALUMINIUM,2,1,Résidentiel individuel,Moyen
2633E1535101V,2026-06-08,P15Y8B7S9T6S,33063_3985_00030,30 Cours Georges Clémenceau 33000 Bordeaux,33000,Bordeaux,33,appartement,avant 1948,,60.9,D,B,210,constructed,-0.579072802764039,44.84283287856336,33063,1,adresse_ban,bdnb-bg-XMKM-RW4D-9XW2,17.7,88,15.2,1900,PIERRE,TUILES,5,2,Tertiaire & Autres,Moyen
2633E1536559X,2026-06-08,PXM79TF66CSH,33065_0116_00015,15 Chemin de Brousse 33270 Bouliac,33270,Bouliac,33,maison,1989-2000,1998,161,C,B,160,constructed,-0.485818811295843,44.82048332351988,33065,1,adresse_ban,bdnb-bg-ZLFZ-CRXV-6JW3,4.5,146,74.3,1998,BRIQUES,TUILES,2,1,Résidentiel individuel,Moyen
2633E1528776O,2026-06-08,JVYZE37JW471,33249_0160_00020,20 Passage Carriet 33310 Lormont,33310,Lormont,33,maison,avant 1948,,109.8,C,A,130,constructed,-0.529037090622545,44.88465730881566,33249,1,adresse_ban,bdnb-bg-Z8A2-QUX8-3BTM,4.7,96,6.3,1922,AGGLOMERE - BOIS,TUILES,1,1,Résidentiel individuel,Fort
2633E1532347X,2026-06-08,73RMFPB5W33E,33522_2580_00003_quater,3quater Rue de la Verite 33400 Talence,33400,Talence,33,maison,1983-1988,,62,D,B,188,constructed,-0.574007043599746,44.80482883118069,33522,1,adresse_ban,bdnb-bg-QYPA-D8UU-R7WL,1.9,53,15.3,1982,BRIQUES,TUILES,1,1,Résidentiel individuel,Moyen
2633E1532557Z,2026-06-08,9P4FZ526S1SV,33522_1150_00023,23 Cours Gambetta 33400 Talence,33400,Talence,33,appartement,avant 1948,1945,46,D,B,237,constructed,-0.583609930584818,44.820544710399744,33522,1,adresse_ban,bdnb-bg-79N3-8QF5-UP91,7.5,85,18.0,1900,INDETERMINE,INDETERMINE,3,4,Tertiaire & Autres,Moyen
2633E1536391L,2026-06-08,3Q92GKH2Q1A2,33318_1831_00006,6 Allée Jean Ribéreau-Gayon 33600 Pessac,33600,Pessac,33,maison,2013-2021,2016,80.9,C,C,69,constructed,-0.694558155672234,44.7813236964749,33318,2,adresse_ban,bdnb-bg-CCZU-RGPZ-BCCC,1.8,33,53.6,2016,PIERRE,ARDOISES,1,4,Résidentiel collectif,Moyen
2633E1528548U,2026-06-08,CRM3TG5R4SYX,33075_0295_00052,52 Avenue Perier 33520 Bruges,33520,Bruges,33,appartement,2006-2012,,66.3,C,C,72,constructed,-0.58098714680787,44.87520123501386,33075,1,adresse_ban,bdnb-bg-KXK7-KE8T-XH6E,12.8,669,2.6,2012,INDETERMINE,INDETERMINE,5,62,Résidentiel collectif,Moyen
2633E1535862C,2026-06-08,FQXK5291WBZS,33063_7070_00030,30 Rue Paulin 33000 Bordeaux,33000,Bordeaux,33,appartement,1948-1974,,69.4,C,B,164,constructed,-0.587529721075419,44.84710361652314,33063,1,adresse_ban,bdnb-bg-687G-RK31-6XJT,11.2,308,11.7,1969,INDETERMINE,INDETERMINE,5,9,Résidentiel collectif,Moyen
2633E1538525N,2026-06-08,G6T8CBJE9DMX,33284_0177_00062_a,62a Avenue de Verdun 33380 Mios,33380,Mios,33,maison,2006-2012,,88.7,C,A,128,constructed,-0.850251114062964,44.66002171681653,33284,1,adresse_ban,bdnb-bg-2C6A-EPXR-AE4K,4.5,122,47.9,2010,BRIQUES,TUILES,1,1,Résidentiel individuel,
2633E1533675Z,2026-06-08,XFCVQDKRBYDJ,33318_2610_00010,10 Rue de Peybouquey 33600 Pessac,33600,Pessac,33,maison,1948-1974,,89.1,D,D,177,constructed,-0.607871450938868,44.80994293978297,33318,1,adresse_ban,bdnb-bg-2RU3-UEYG-GBAX,5.6,49,24.0,1956,BRIQUES - AUTRES,TUILES,2,1,Résidentiel individuel,Fort
2633E1529800Y,2026-06-08,2F7PQ4DDQ56Q,33318_0575_00012,12 Rue des Bouvreuils 33600 Pessac,33600,Pessac,33,maison,2006-2012,,122.8,A,A,39,constructed,-0.701283849775034,44.789658754715944,33318,1,adresse_ban,bdnb-bg-VE22-DJTG-W219,4.8,192,51.0,2009,AGGLOMERE - BRIQUES,TUILES,1,1,Résidentiel individuel,Moyen
2633E1538124C,2026-06-08,HJQR7HDYJ96Q,33240_0540_00021,21 Rue Eugène Coiffard 33340 Lesparre-Médoc,33340,Lesparre-Médoc,33,maison,1989-2000,,77.9,D,B,247,constructed,-0.924126434919875,45.3010141103319,33240,1,adresse_ban,bdnb-bg-GKM3-ZUAY-RTDV,2.8,114,16.9,2000,BOIS - MEULIERE,TUILES,1,1,Résidentiel individuel,Moyen
2633E1528612G,2026-06-08,XKR8HFRMPG5B,33063_cn7ljv_00210,210 Rue de l'Ecole Normale 33200 Bordeaux,33200,Bordeaux,33,appartement,1948-1974,1959,25.8,E,E,303,constructed,-0.612705559079946,44.84873782664417,33063,8,adresse_ban,bdnb-bg-URA1-XJTS-HT6U,15.7,679,17.3,1972,BETON,BETON,10,66,Résidentiel collectif,Fort
2633E1527227Z,2026-06-08,7DBMEERR7VAQ,33522_2500_00130_bis,130bis Rue de Suzon 33400 Talence,33400,Talence,33,appartement,2006-2012,2010,32.3,C,B,188,constructed,-0.582362046531465,44.81057761164102,33522,1,adresse_ban,bdnb-bg-64UT-R68H-FM5Z,5.7,75,17.5,2010,INDETERMINE,INDETERMINE,1,2,Résidentiel collectif,Moyen
2633E1531630I,2026-06-08,QJ13EZN3K74A,33063_8920_00220,220 Avenue Thiers 33100 Bordeaux,33100,Bordeaux,33,appartement,2006-2012,2010,61.2,C,A,151,constructed,-0.548458886552433,44.847670725211465,33063,2,adresse_ban,bdnb-bg-ER6S-GTYP-FNP6,14.9,759,4.2,2010,INDETERMINE,INDETERMINE,5,136,Résidentiel collectif,Moyen
2633E1538838O,2026-06-08,2X6B5RH84KSE,33274_1060_00022,22 Route de la Salle 33650 Martillac,33650,Martillac,33,maison,1978-1982,1978,140.3,D,D,150,constructed,-0.554527136889236,44.724816428857245,33274,1,adresse_ban,bdnb-bg-B7VL-28EV-C59Y,3.3,111,42.7,,,,,,,Moyen
2633E1538890O,2026-06-08,GFYGWXXYPDD7,33498_0160_00023,23 Chemin du Moulin des Vaches 33770 Salles,33770,Salles,33,maison,1989-2000,,168.6,C,C,127,constructed,-0.899584061988375,44.52940814199915,33498,2,adresse_ban,bdnb-bg-L38U-CDKC-2HES,5.6,326,25.9,1996,BOIS,TUILES,1,1,Résidentiel individuel,
2633E1531667T,2026-06-08,P3SEJAE86V71,33063_4810_00251,251 Rue Judaïque 33000 Bordeaux,33000,Bordeaux,33,appartement,2006-2012,2011,49.1,C,C,94,constructed,-0.597999912539914,44.84063813574015,33063,2,adresse_ban,bdnb-bg-XUV4-J7BT-5499,5.0,212,14.1,2012,BETON,INDETERMINE,4,21,Résidentiel collectif,Fort
2633E1534201F,2026-06-08,9P4FZ526S1SV,33522_1150_00023,23 Cours Gambetta 33400 Talence,33400,Talence,33,appartement,avant 1948,1945,35,E,B,265,constructed,-0.583609930584818,44.820544710399744,33522,1,adresse_ban,bdnb-bg-79N3-8QF5-UP91,7.5,85,18.0,1900,INDETERMINE,INDETERMINE,3,4,Tertiaire & Autres,Moyen
2633E1533698W,2026-06-08,9R8K4QFC9MJK,33051_0251_00026,26 Rue du Prieuré de Comprian 33380 Biganos,33380,Biganos,33,maison,1948-1974,,116,C,A,152,constructed,-0.988571639440383,44.65301944348842,33051,1,adresse_ban,bdnb-bg-2BY9-LLRV-FMZK,3.8,108,8.6,1988,BRIQUES,TUILES,2,1,Résidentiel individuel,Moyen
2633E1535063J,2026-06-08,DB42TSPA398D,33032_0536_00011,11 Rue du Moura 33530 Bassens,33530,Bassens,33,appartement,2013-2021,2021,65,C,C,86,constructed,-0.512821994475541,44.9147197595412,33032,1,adresse_ban,bdnb-bg-WZ4J-6KPN-AGUC,2.6,122,18.4,,,,,,,Fort
2633E1534991P,2026-06-08,Z556Z28E5G7Q,33177_0064_00007_bis,7bis Rue de la Tour 33340 Gaillan-en-Médoc,33340,Gaillan-en-Médoc,33,maison,2013-2021,,137,A,A,47,constructed,-0.954483621872306,45.31288686173709,33177,1,adresse_ban,bdnb-bg-LAR2-B4TH-6N1Y,3.5,168,8.3,2016,BRIQUES,TUILES,1,1,Résidentiel individuel,Moyen
2633E1532698K,2026-06-08,W4VQA93D37EG,33005_0650_00013,13 Avenue du Phare 33510 Andernos-les-Bains,33510,Andernos-les-Bains,33,maison,avant 1948,,66.9,B,A,92,constructed,-1.085234165205903,44.7295665329225,33005,2,adresse_ban,bdnb-bg-Z63P-S1BE-MRVN,3.5,74,2.8,1932,BRIQUES,TUILES,1,1,Résidentiel individuel,
2633E1527772Y,2026-06-08,QH364HJPJGXY,33063_wvppj9_00014,14 Rue de l'Eglise 33200 Bordeaux,33200,Bordeaux,33,appartement,1989-2000,1989,47.7,C,A,148,constructed,-0.613927167356717,44.850876930145866,33063,2,adresse_ban,bdnb-bg-Y23S-SV1M-7PYM,14.2,975,20.8,1989,BETON - BRIQUES,TUILES,5,40,Résidentiel collectif,Moyen
2633E1533269J,2026-06-08,RHAJWPFF65AB,33075_0035_00025,25 Rue Ausone 33520 Bruges,33520,Bruges,33,immeuble,2006-2012,2010,,C,A,140,constructed,-0.596317254101517,44.87664464983365,33075,1,adresse_ban,bdnb-bg-D7PC-A31F-BYX9,11.4,1692,12.7,2010,INDETERMINE,INDETERMINE,4,176,Résidentiel collectif,Moyen
2633E1536915P,2026-06-08,Y5CQVQ9EK9DB,33281_1865_00006,6 Rue Marcel Pagnol 33700 Mérignac,33700,Mérignac,33,maison,1948-1974,,75,D,D,214,constructed,-0.698034190842192,44.815283892036135,33281,1,adresse_ban,bdnb-bg-KDYU-5VAK-PMZR,3.1,94,49.2,1973,BRIQUES,TUILES,1,1,Résidentiel individuel,Moyen
2633E1536699H,2026-06-08,XH32GXW8SSNH,33063_4900_00025,25 Rue Kléber 33800 Bordeaux,33800,Bordeaux,33,appartement,avant 1948,,67,C,A,138,constructed,-0.607122056146051,44.847329398585686,33063,2,adresse_ban,bdnb-bg-UREE-K42K-114Y,7.2,63,15.8,2002,BRIQUES,TUILES,1,1,Résidentiel individuel,Fort
2633E1525832I,2026-06-08,8EST1R9BKSP4,33119_0490_00005,5 Rue François Coppee 33150 Cenon,33150,Cenon,33,maison,1989-2000,,74.6,D,D,214,constructed,-0.507073631530704,44.864815354442314,33119,1,adresse_ban,bdnb-bg-F9J9-ZTAH-A4EM,2.8,126,50.2,1954,AGGLOMERE,TUILES,1,1,Résidentiel individuel,Moyen
2633E1532268W,2026-06-08,EHZMCQZ2YX9W,33063_2110_00008,8 Impasse Clémenceau 33000 Bordeaux,33000,Bordeaux,33,appartement,avant 1948,,30.8,E,C,307,constructed,-0.574958959510283,44.85111741817916,33063,1,adresse_ban,bdnb-bg-9RGE-K35Z-2NPG,10.5,140,5.0,1930,PIERRE,TUILES,4,5,Résidentiel collectif,Moyen
2633E1527779F,2026-06-08,5QGFPZB8DD72,33063_8ajxqk_00068,68 Rue Pasteur 33200 Bordeaux,33200,Bordeaux,33,appartement,1983-1988,,26.4,D,B,254,constructed,-0.604261930654468,44.8443602421804,33063,4,adresse_ban,bdnb-bg-QU2E-MHUJ-TRU1,14.9,309,13.4,1967,BETON,BETON,5,15,Résidentiel collectif,Fort
2633E1533597Z,2026-06-08,9P4FZ526S1SV,33522_1150_00023,23 Cours Gambetta 33400 Talence,33400,Talence,33,appartement,avant 1948,1945,41,D,B,244,constructed,-0.583609930584818,44.820544710399744,33522,1,adresse_ban,bdnb-bg-79N3-8QF5-UP91,7.5,85,18.0,1900,INDETERMINE,INDETERMINE,3,4,Tertiaire & Autres,Moyen
2633E1538293P,2026-06-08,NNDWSVEQS7KH,33211_0011_00005,5 chemin du Bouscarru 33460 Labarde,33460,Labarde,33,maison,avant 1948,,65.6,E,E,236,constructed,-0.63599173460889,45.02259194860626,33211,1,adresse_ban,bdnb-bg-HA86-UYZ1-A3C4,4.1,93,6.4,1800,BETON - PIERRE,TUILES,1,1,Résidentiel individuel,Fort
2633E1531558O,2026-06-08,DP4R3GJ67ASJ,33063_4070_00040,40 Boulevard Godard 33300 Bordeaux,33300,Bordeaux,33,appartement,2001-2005,2001,51.6,C,A,127,constructed,-0.587215311051676,44.859376874122574,33063,1,adresse_ban,bdnb-bg-YKMS-ZW39-D7T9,13.5,621,5.0,2001,INDETERMINE,INDETERMINE,5,110,Résidentiel collectif,Fort
2633E1532269X,2026-06-08,FNXQFZHNPNXC,33389_0045_00007,7 Rue René Bourda 33820 Saint-Ciers-sur-Gironde,33820,Saint-Ciers-sur-Gironde,33,maison,avant 1948,1900,94.3,E,B,271.3,constructed,-0.606994235845395,45.289761946120336,33389,1,adresse_ban,bdnb-bg-KLGS-Z28J-PLQC,4.0,52,32.3,1900,PIERRE,TUILES,1,1,Résidentiel individuel,Moyen
2633E1535992C,2026-06-08,QN9DC15NMQRA,33063_8400_00012,12 Rue Sainte Colombe 33000 Bordeaux,33000,Bordeaux,33,appartement,avant 1948,,13.1,C,A,184,constructed,-0.570178921274047,44.8372415668316,33063,1,adresse_ban,bdnb-bg-STCQ-9EFK-AWT8,12.4,237,8.0,1790,PIERRE,TUILES,5,7,Résidentiel collectif,Moyen
2633E1527723B,2026-06-08,5QGFPZB8DD72,33063_8ajxqk_00068,68 Rue Pasteur 33200 Bordeaux,33200,Bordeaux,33,appartement,1983-1988,,26.4,D,B,254,constructed,-0.604261930654468,44.8443602421804,33063,4,adresse_ban,bdnb-bg-QU2E-MHUJ-TRU1,14.9,309,13.4,1967,BETON,BETON,5,15,Résidentiel collectif,Fort
2633E1531138K,2026-06-08,BE74VJ7Q28YN,33522_2500_00251,251 Rue de Suzon 33400 Talence,33400,Talence,33,appartement,1989-2000,1997,18.5,C,A,174,constructed,-0.576267033800486,44.81297596892064,33522,1,adresse_ban,bdnb-bg-A4R2-JSQF-2FG4,2.3,120,18.0,1996,BRIQUES,TUILES,3,58,Résidentiel collectif,Moyen
2633E1530381H,2026-06-08,V14435PES4F6,33075_0388_00110_bis,110bis Rue de la Tour de Gassies 33520 Bruges,33520,Bruges,33,maison,2013-2021,2017,114,A,A,51,constructed,-0.627060947214968,44.88268202845754,33075,1,adresse_ban,bdnb-bg-GLNK-979J-AVG5,7.0,100,27.1,2017,BRIQUES,TUILES,1,1,Résidentiel individuel,Fort
2633E1537993B,2026-06-08,NT2QXQZKZVZM,33063_7505_00009,9 Rue Pourmann 33300 Bordeaux,33300,Bordeaux,33,appartement,2006-2012,2010,92.7,D,C,181.1,constructed,-0.549702932832805,44.868073240468306,33063,1,adresse_ban,bdnb-bg-271N-SWGN-F8GC,13.6,146,3.8,,,,,,,Moyen
2633E1536905F,2026-06-08,7QDWZXA125J1,33063_4810_00013,13 Rue Judaïque 33000 Bordeaux,33000,Bordeaux,33,appartement,2006-2012,2006,56,C,C,110.4,constructed,-0.581859771814193,44.84172062411467,33063,2,adresse_ban,bdnb-bg-WK1Y-YJVJ-36EY,17.5,97,15.2,1870,PIERRE,TUILES,5,119,Résidentiel collectif,Fort
2633E1534961L,2026-06-08,3QK3EHZ2MZTX,33522_1560_00068,68 Rue Lamartine 33400 Talence,33400,Talence,33,appartement,1989-2000,,43.5,D,B,237,constructed,-0.585931211968082,44.811727427038484,33522,1,adresse_ban,bdnb-bg-2XQ9-8XT7-LLB2,7.3,306,20.4,1998,INDETERMINE,INDETERMINE,3,30,Résidentiel collectif,Moyen
2633E1535020S,2026-06-08,2W1C1ACY7RA1,33448_1235_00059,59 avenue de l'Esteyrolle 33650 Saint-Médard-d'Eyrans,33650,Saint-Médard-d'Eyrans,33,appartement,1948-1974,,25,D,B,269,constructed,-0.505722013880837,44.71753014551269,33448,1,adresse_ban,bdnb-bg-5SEC-WU69-7DPC,4.4,409,8.8,1935,BRIQUES,TUILES,1,5,Tertiaire & Autres,Fort
2633E1537675V,2026-06-08,JPPWPGDW7QKW,33063_2840_00126,126 Rue Dubourdieu 33800 Bordeaux,33800,Bordeaux,33,appartement,1989-2000,,18.5,C,A,180,constructed,-0.57596463844267,44.82300880442293,33063,1,adresse_ban,bdnb-bg-3VG8-W24W-QPKU,4.1,27,14.1,1993,PIERRE,TUILES,5,99,Résidentiel collectif,Moyen
2633E1537116I,2026-06-08,84RC19ZEV63M,33063_6995_00013,13 Rue Paul Antin 33800 Bordeaux,33800,Bordeaux,33,appartement,avant 1948,,33.4,F,C,345,constructed,-0.57088637750997,44.81877452865533,33063,1,adresse_ban,bdnb-bg-GRXC-E3EK-8AT7,5.9,91,14.5,1900,BRIQUES - PIERRE,TUILES,2,4,Résidentiel collectif,Moyen
2633E1536260K,2026-06-08,EA5QSKTAQFWB,33022_0165_00031,31 Chemin de la Gare 33480 Avensan,33480,Avensan,33,maison,1948-1974,,66,G,F,508,constructed,-0.748816708940672,45.04043645604249,33022,2,adresse_ban,bdnb-bg-SVH8-KELR-N1N3,2.6,137,18.8,1972,BRIQUES,TUILES,1,1,Résidentiel individuel,Moyen
2633E1538746A,2026-06-08,2YY13QDWWWBA,33063_1560_00025,25 Rue Carbonneau 33800 Bordeaux,33800,Bordeaux,33,appartement,avant 1948,,97.1,E,E,288,constructed,-0.563238238628495,44.83246266558591,33063,1,adresse_ban,bdnb-bg-EMKP-8QQU-YX9P,11.8,89,8.0,1850,INDETERMINE,INDETERMINE,3,3,Résidentiel collectif,Moyen
2633E1533907X,2026-06-08,J45JFRBQW71Z,33213_0256_00032_bis,32bis Rue des Templiers 33650 La Brède,33650,La Brède,33,maison,1989-2000,1993,62.2,D,B,196,constructed,-0.532471616381206,44.67908522977223,33213,4,adresse_ban,bdnb-bg-TB3L-DRVL-CJUL,6.2,269,18.5,2006,BRIQUES,TUILES,2,4,Résidentiel collectif,Moyen
2633E1527859H,2026-06-08,E2GDBYFF6V86,33522_1150_00162,162 Cours Gambetta 33400 Talence,33400,Talence,33,appartement,1989-2000,,21.1,D,B,232,constructed,-0.586192147758606,44.815533031695885,33522,1,adresse_ban,bdnb-bg-C15L-1YWA-GCJK,2.8,27,19.0,1997,INDETERMINE,INDETERMINE,3,11,Tertiaire & Autres,Moyen
2633E1538199Z,2026-06-08,B6AP4ACAEY89,33281_2720_00046,46 Rue des Trois Etoiles 33700 Mérignac,33700,Mérignac,33,maison,1948-1974,1950,143,C,C,150,constructed,-0.620741915301458,44.833424549040345,33281,1,adresse_ban,bdnb-bg-UJ8S-CUD6-UGJ7,6.2,78,24.8,1950,INDETERMINE,INDETERMINE,2,1,Résidentiel individuel,Moyen
2633E1535012K,2026-06-08,A7HA7K9JJM7T,33063_6150_00003,3 Rue Matignon 33000 Bordeaux,33000,Bordeaux,33,appartement,1948-1974,1949,35.6,D,B,214.7,constructed,-0.585743076684968,44.850375793625304,33063,2,adresse_ban,bdnb-bg-W9ZG-8KSC-DDXN,12.9,123,8.7,1800,PIERRE,TUILES,4,6,Résidentiel collectif,Moyen
2633E1536319R,2026-06-08,XH32GXW8SSNH,33063_4900_00025,25 Rue Kléber 33800 Bordeaux,33800,Bordeaux,33,appartement,avant 1948,,22.5,C,A,157,constructed,-0.607122056146051,44.847329398585686,33063,2,adresse_ban,bdnb-bg-UREE-K42K-114Y,7.2,63,15.8,2002,BRIQUES,TUILES,1,1,Résidentiel individuel,Fort
2633E1532620K,2026-06-08,FRE2EFKRC6XV,33394_72bvrw_04025,4025 Route du Milieu 33330 Saint-Émilion,33330,Saint-Émilion,33,appartement,2001-2005,,37.3,C,A,173,constructed,-0.204940866260458,44.90330073649533,33394,2,adresse_ban,bdnb-bg-2S5G-9H91-2UM6,3.9,178,15.5,2005,BRIQUES,TUILES,1,8,Résidentiel collectif,Moyen
2633E1533729B,2026-06-08,W4VQA93D37EG,33005_0650_00013,13 Avenue du Phare 33510 Andernos-les-Bains,33510,Andernos-les-Bains,33,maison,avant 1948,,66.9,B,A,82,constructed,-1.085234165205903,44.7295665329225,33005,2,adresse_ban,bdnb-bg-Z63P-S1BE-MRVN,3.5,74,2.8,1932,BRIQUES,TUILES,1,1,Résidentiel individuel,
2633E1537230S,2026-06-08,FR6KDJP7ZDRX,33352_0120_00042,42 Rue Armand Caduc 33190 La Réole,33190,La Réole,33,appartement,avant 1948,,66.5,C,A,122,constructed,-0.03868007480356,44.58175353101551,33352,1,adresse_ban,bdnb-bg-ZWGW-AL38-WM4V,11.6,154,40.4,1880,INDETERMINE,INDETERMINE,4,4,Résidentiel collectif,Fort
2633E1530532C,2026-06-08,M1KS4RMJH1J4,33063_amt1vd_00024,24 Rue Laporte 33200 Bordeaux,33200,Bordeaux,33,appartement,1948-1974,,51.7,D,D,221,constructed,-0.620954661874553,44.8479262281398,33063,7,adresse_ban,bdnb-bg-1RP3-9F91-SRY1,14.8,461,28.3,1961,BETON,BETON,5,75,Résidentiel collectif,Fort
2633E1526050S,2026-06-08,6W4AS1QBGJSX,33529_0464_00001,1 Place de la Brasserie 33260 La Teste-de-Buch,33260,La Teste-de-Buch,33,maison,1983-1988,,59.5,D,D,161,constructed,-1.148254607537798,44.628081702788194,33529,1,adresse_ban,bdnb-bg-VH64-JEF5-JW31,7.3,38,4.9,1984,BETON,TUILES,3,1,Résidentiel individuel,Moyen
2633E1531018U,2026-06-08,41198AF1CFAD,33555_0112_00019,19 Rue Georges Good 33380 Marcheprime,33380,Marcheprime,33,appartement,1989-2000,,52,C,C,110,constructed,-0.857686070987595,44.69004282431388,33555,1,adresse_ban,bdnb-bg-JHKX-97G9-LDEZ,2.8,110,52.3,1995,INDETERMINE,INDETERMINE,1,1,Résidentiel individuel,
2633E1532988O,2026-06-08,AW1VKKSERVA3,33324_0041_00053_ter,53ter Avenue du Maréchal Leclerc 33220 Pineuilh,33220,Pineuilh,33,maison,2001-2005,,98.5,C,B,162,constructed,0.206985291962007,44.83666034724714,33324,2,adresse_ban,bdnb-bg-U5YA-RR2J-N8GK,4.3,125,15.8,2003,BRIQUES,TUILES,1,1,Résidentiel individuel,Moyen
2633E1537826Q,2026-06-08,N45GNRCWVX97,33063_1330_00009,9 Rue Cabanac 33800 Bordeaux,33800,Bordeaux,33,appartement,avant 1948,,69.1,C,A,146,constructed,-0.553446552877517,44.82776237185924,33063,3,adresse_ban,bdnb-bg-X57B-7G1M-1RM6,16.7,493,5.2,1900,INDETERMINE,INDETERMINE,4,16,Résidentiel collectif,Moyen
2633E1528901J,2026-06-08,9NBYWZC7R6SC,33075_0098_00010,10 Rue de la Colonne 33520 Bruges,33520,Bruges,33,immeuble,1948-1974,,,D,D,222,constructed,-0.613738487580104,44.8724886837112,33075,1,adresse_ban,bdnb-bg-3UT5-JSB2-FGYZ,4.9,76,17.4,1968,BETON - BRIQUES,BETON,5,65,Résidentiel collectif,Moyen
2633E1535544W,2026-06-08,WQMS1ZY6D2D2,33063_8650_00018,18 Rue de Sete 33800 Bordeaux,33800,Bordeaux,33,maison,avant 1948,,72.8,D,D,187,constructed,-0.565618671939167,44.814516730807995,33063,1,adresse_ban,bdnb-bg-C1BG-HY91-PXVA,5.3,68,9.8,1920,PIERRE,TUILES,1,1,Résidentiel individuel,Fort
2633E1526494U,2026-06-08,25H8XT4F9GHD,33207_2020_00045,45 Route de la Fossé du Moulin 33450 Izon,33450,Izon,33,maison,avant 1948,,79.1,C,B,154,constructed,-0.37306320200007,44.92034816971549,33207,2,adresse_ban,bdnb-bg-2DTU-VVMB-4R4P,3.0,149,6.8,,,,,,,Moyen
2633E1536497N,2026-06-08,XH32GXW8SSNH,33063_4900_00025,25 Rue Kléber 33800 Bordeaux,33800,Bordeaux,33,appartement,avant 1948,,44.6,C,A,133,constructed,-0.607122056146051,44.847329398585686,33063,2,adresse_ban,bdnb-bg-UREE-K42K-114Y,7.2,63,15.8,2002,BRIQUES,TUILES,1,1,Résidentiel individuel,Fort
2633E1538903B,2026-06-08,ZNVWNGRS5DWT,33063_3090_00021,21 Cours Edouard Vaillant 33300 Bordeaux,33300,Bordeaux,33,appartement,avant 1948,1900,66.4,C,B,173.3,constructed,-0.557175634745272,44.860116259789145,33063,4,adresse_ban,bdnb-bg-UVZH-TYM5-CU9M,6.6,1044,5.0,2015,INDETERMINE,INDETERMINE,3,41,Résidentiel collectif,Moyen
2633E1525904C,2026-06-08,AAS7ESSK7FC7,33009_0855_00033,33 Boulevard du Général Leclerc 33120 Arcachon,33120,Arcachon,33,appartement,1983-1988,1983,38.4,D,D,157,constructed,-1.164466363677637,44.659392983811415,33009,2,adresse_ban,bdnb-bg-QULZ-YN1B-TBMG,21.7,331,7.5,1983,BETON,BETON,7,41,Résidentiel collectif,Moyen
2633E1529289H,2026-06-08,HF9CXEK1DSHV,33318_0170_00017_ter,17ter Rue des Anciennes Ecoles 33600 Pessac,33600,Pessac,33,maison,1948-1974,1949,124.4,B,A,85,constructed,-0.661206752768141,44.79272126529027,33318,1,adresse_ban,bdnb-bg-Q79L-S71C-A1ZH,2.9,173,49.0,2021,INDETERMINE,INDETERMINE,1,1,Résidentiel individuel,Moyen
2633E1534914Q,2026-06-08,JKD1ZNQZ81MP,33042_0227_00068,68 Rue du Stade 33830 Belin-Béliet,33830,Belin-Béliet,33,maison,1978-1982,,155,E,B,261,constructed,-0.780850857688419,44.50941828930342,33042,1,adresse_ban,bdnb-bg-ZRTM-7H8J-YU2T,2.6,67,49.9,,,,,,,Moyen
2633E1531988C,2026-06-08,GHC31AR1XJ6E,33029_0031_00069,69 Rue de la Carreyre 33114 Le Barp,33114,Le Barp,33,maison,1989-2000,1996,94.7,C,B,179,constructed,-0.768840162680112,44.61086693396368,33029,1,adresse_ban,bdnb-bg-NHNF-4J7G-F3HP,2.7,110,71.9,1996,BRIQUES,TUILES,1,1,Résidentiel individuel,Moyen
2633E1537846K,2026-06-08,DF73XYB3KAP8,33376_0519_00023,23 Allée du Pic Vert 33160 Saint-Aubin-de-Médoc,33160,Saint-Aubin-de-Médoc,33,maison,1989-2000,,173.6,C,C,139,constructed,-0.715626513366835,44.91356641681641,33376,1,adresse_ban,bdnb-bg-DHZ3-5BAB-7RK4,5.4,25,30.1,,,,,,,Fort
2633E1525825B,2026-06-08,8EST1R9BKSP4,33119_0490_00005,5 Rue François Coppee 33150 Cenon,33150,Cenon,33,maison,1989-2000,,74.6,D,D,211,constructed,-0.507073631530704,44.864815354442314,33119,1,adresse_ban,bdnb-bg-F9J9-ZTAH-A4EM,2.8,126,50.2,1954,AGGLOMERE,TUILES,1,1,Résidentiel individuel,Moyen
2633E1532144C,2026-06-08,9P4FZ526S1SV,33522_1150_00023,23 Cours Gambetta 33400 Talence,33400,Talence,33,appartement,avant 1948,1945,32,C,A,172,constructed,-0.583609930584818,44.820544710399744,33522,1,adresse_ban,bdnb-bg-79N3-8QF5-UP91,7.5,85,18.0,1900,INDETERMINE,INDETERMINE,3,4,Tertiaire & Autres,Moyen
2633E1536676K,2026-06-08,2SAZ3KD2GE18,33229_0425_00012,12 Avenue Louis Robert 33138 Lanton,33138,Lanton,33,maison,1975-1977,1976,68.7,C,B,162,constructed,-1.050834452933034,44.71775603756783,33229,1,adresse_ban,bdnb-bg-K872-NXJG-DK6U,2.4,78,9.0,1920,BRIQUES,TUILES,1,1,Résidentiel individuel,
2633E1532182O,2026-06-08,QJ13EZN3K74A,33063_8920_00220,220 Avenue Thiers 33100 Bordeaux,33100,Bordeaux,33,appartement,2006-2012,2010,61.9,C,A,127,constructed,-0.548458886552433,44.847670725211465,33063,2,adresse_ban,bdnb-bg-ER6S-GTYP-FNP6,14.9,759,4.2,2010,INDETERMINE,INDETERMINE,5,136,Résidentiel collectif,Moyen
2633E1538116U,2026-06-08,18VKYYJC2NDA,33220_0236_00054,54 Rue Principale 33460 Lamarque,33460,Lamarque,33,maison,avant 1948,,143.3,D,B,235,constructed,-0.718703884133799,45.095815441462136,33220,1,adresse_ban,bdnb-bg-N99N-ZJEV-QW2A,7.5,119,7.8,2001,MEULIERE,TUILES,3,1,Résidentiel individuel,Fort
2633E1530003T,2026-06-08,8NZVAN2WKKF1,33011_0798_00002,2 Rue Pissaro 33740 Arès,33740,Arès,33,maison,1978-1982,1982,37.7,E,C,276,constructed,-1.1225466309823,44.76500996905795,33011,1,adresse_ban,bdnb-bg-V19N-1HG8-DT8L,3.0,55,8.2,1984,AGGLOMERE,TUILES,1,39,Résidentiel collectif,
2633E1534985J,2026-06-08,A2V5NSZ291TC,33063_0340_00055,55 Rue Arago 33300 Bordeaux,33300,Bordeaux,33,appartement,avant 1948,,57.8,D,B,199,constructed,-0.549184919332811,44.87451927178667,33063,1,adresse_ban,bdnb-bg-2QYZ-6TR3-45BH,5.3,86,4.0,1954,INDETERMINE,INDETERMINE,2,2,Résidentiel collectif,Moyen
2633E1535314A,2026-06-08,RHAJWPFF65AB,33075_0035_00025,25 Rue Ausone 33520 Bruges,33520,Bruges,33,immeuble,2006-2012,2010,,C,A,142,constructed,-0.596317254101517,44.87664464983365,33075,1,adresse_ban,bdnb-bg-D7PC-A31F-BYX9,11.4,1692,12.7,2010,INDETERMINE,INDETERMINE,4,176,Résidentiel collectif,Moyen
2633E1534320U,2026-06-08,BWK2TJ3KDKM1,33063_9115_00070,70 Rue Turenne 33000 Bordeaux,33000,Bordeaux,33,appartement,1948-1974,,68.7,D,D,205,constructed,-0.584975080524062,44.84551637910722,33063,2,adresse_ban,bdnb-bg-H8NY-TK2R-8XJJ,17.3,3184,10.8,1977,PIERRE,TUILES,8,182,Résidentiel collectif,Moyen
2633E1533769P,2026-06-08,X9GXDNWJS4HR,33063_5395_00033,33 Rue Léonard Lenoir 33100 Bordeaux,33100,Bordeaux,33,appartement,2006-2012,2009,108.6,D,B,218,constructed,-0.553594248537813,44.84067698767487,33063,2,adresse_ban,bdnb-bg-VYVL-T4U8-ANJG,10.9,288,3.9,2008,PIERRE,TUILES,5,15,Résidentiel collectif,Moyen
2633E1535865F,2026-06-08,NT9ZYMQ6KZT3,33514_0215_00100_bis,100bis Route des Lacs 33780 Soulac-sur-Mer,33780,Soulac-sur-Mer,33,maison,2013-2021,,85,B,A,93,constructed,-1.121149697124437,45.49120517882817,33514,1,adresse_ban,bdnb-bg-5CMV-HUAN-D16Y,4.2,107,7.1,2016,BOIS,TUILES,2,1,Résidentiel individuel,Fort
